X,Y,OBJECTID,UNITID,NAME,STREET,CITY,STATE,ZIP,STFIP,CNTY,NMCNTY,LOCALE,LAT,LON,CBSA,NMCBSA,CBSATYPE,CSA,NMCSA,NECTA,NMNECTA,CD,SLDL,SLDU,SCHOOLYEAR
-85.0977664,33.57362737,1001,141334,University of West Georgia,1601 Maple St,Carrollton,GA,30118-0001,13,13045,Carroll County,31,33.573621,-85.097762,12060,"Atlanta-Sandy Springs-Roswell, GA",1,122,"Atlanta--Athens-Clarke County--Sandy Springs, GA",N,N,1303,13069,13030,2017-2018
-83.84587411,34.93352971,1002,141361,Young Harris College,1 College Street,Young Harris,GA,30582,13,13281,Towns County,43,34.933523,-83.84587,N,N,0,N,N,N,N,1309,13008,13050,2017-2018
-157.8078654,21.28995342,1003,141486,Chaminade University of Honolulu,3140 Waialae Avenue,Honolulu,HI,96816-1578,15,15003,Honolulu County,11,21.28995,-157.807851,46520,"Urban Honolulu, HI",1,N,N,N,N,1501,15020,15010,2017-2018
-155.0808615,19.70119246,1004,141565,University of Hawaii at Hilo,200 W Kawili St,Hilo,HI,96720-4091,15,15001,Hawaii County,33,19.701189,-155.080847,25900,"Hilo, HI",2,N,N,N,N,1502,15002,15001,2017-2018
-157.8189934,21.29860142,1005,141574,University of Hawaii at Manoa,2500 Campus Road,Honolulu,HI,96822-2217,15,15003,Honolulu County,11,21.298598,-157.818979,46520,"Urban Honolulu, HI",1,N,N,N,N,1501,15023,15011,2017-2018
-157.8616234,21.31146342,1006,141608,Hawaii Institute of Hair Design,1128 Nuuanu Avenue,Honolulu,HI,96817-5195,15,15003,Honolulu County,11,21.31146,-157.861609,46520,"Urban Honolulu, HI",1,N,N,N,N,1501,15029,15013,2017-2018
-157.8596594,21.31030942,1007,141644,Hawaii Pacific University,1 Aloha Tower Drive,Honolulu,HI,96813,15,15003,Honolulu County,11,21.310306,-157.859645,46520,"Urban Honolulu, HI",1,N,N,N,N,1501,15026,15013,2017-2018
-157.8700144,21.32178842,1008,141680,Honolulu Community College,874 Dillingham Blvd,Honolulu,HI,96817-4505,15,15003,Honolulu County,11,21.321785,-157.87,46520,"Urban Honolulu, HI",1,N,N,N,N,1501,15029,15013,2017-2018
-157.8002274,21.27148342,1009,141796,Kapiolani Community College,4303 Diamond Head Road,Honolulu,HI,96816-4421,15,15003,Honolulu County,11,21.27148,-157.800213,46520,"Urban Honolulu, HI",1,N,N,N,N,1501,15019,15009,2017-2018
-159.3958973,21.9688904,1010,141802,Kauai Community College,3-1901 Kaumualii Highway,Lihue,HI,96766-9500,15,15007,Kauai County,33,21.968887,-159.395883,28180,"Kapaa, HI",2,N,N,N,N,1502,15015,15008,2017-2018
-157.9837854,21.39267342,1011,141811,Leeward Community College,96-045 Ala Ike,Pearl City,HI,96782-3366,15,15003,Honolulu County,21,21.39267,-157.983771,46520,"Urban Honolulu, HI",1,N,N,N,N,1501,15035,15017,2017-2018
-156.4772665,20.88956343,1012,141839,University of Hawaii Maui College,310 W Kaahumanu Ave,Kahului,HI,96732-1617,15,15009,Maui County,13,20.88956,-156.477252,27980,"Kahului-Wailuku-Lahaina, HI",1,N,N,N,N,1502,15009,15005,2017-2018
-157.8615454,21.30557342,1013,141848,Med-Assist School of Hawaii Inc,"345 Queen Street, Suite # 400",Honolulu,HI,96813,15,15003,Honolulu County,11,21.30557,-157.861531,46520,"Urban Honolulu, HI",1,N,N,N,N,1501,15026,15013,2017-2018
-157.7547334,21.29644242,1014,141936,World Medicine Institute,1073 Hind Iuka Drive,Honolulu,HI,96821,15,15003,Honolulu County,21,21.296439,-157.754719,46520,"Urban Honolulu, HI",1,N,N,N,N,1501,15018,15009,2017-2018
-157.8413544,21.29903842,1015,141945,Travel Institute of the Pacific,1314 S King St Ste 1164,Honolulu,HI,96814,15,15003,Honolulu County,11,21.299035,-157.84134,46520,"Urban Honolulu, HI",1,N,N,N,N,1501,15024,15012,2017-2018
-157.8198634,21.29726642,1016,141963,University of Hawaii System Office,2444 Dole St,Honolulu,HI,96822-2399,15,15003,Honolulu County,11,21.297263,-157.819849,46520,"Urban Honolulu, HI",1,N,N,N,N,1501,15023,15011,2017-2018
-158.0564174,21.35531342,1017,141981,University of Hawaii-West Oahu,91-1001 Farrington Highway,Kapolei,HI,96707-4507,15,15003,Honolulu County,21,21.35531,-158.056403,46520,"Urban Honolulu, HI",1,N,N,N,N,1501,15042,15020,2017-2018
-157.8133214,21.40705442,1018,141990,Windward Community College,45-720 Keaahala Rd,Kaneohe,HI,96744-3528,15,15003,Honolulu County,22,21.407051,-157.813307,46520,"Urban Honolulu, HI",1,N,N,N,N,1502,15049,15024,2017-2018
-116.260688,43.61530095,1019,142054,Carrington College-Boise,1122 N. Liberty St.,Boise,ID,83704-8742,16,16001,Ada County,12,43.615295,-116.260675,14260,"Boise City, ID",1,147,"Boise City-Mountain Home-Ontario, ID-OR",N,N,1602,16016,16016,2017-2018
-116.291334,43.65865695,1020,142090,Boise Bible College,8695 W Marigold St,Boise,ID,83714-1220,16,16001,Ada County,21,43.658651,-116.291321,14260,"Boise City, ID",1,147,"Boise City-Mountain Home-Ontario, ID-OR",N,N,1601,16016,16016,2017-2018
-116.203314,43.60428995,1021,142115,Boise State University,1910 University Dr,Boise,ID,83725,16,16001,Ada County,12,43.604284,-116.203301,14260,"Boise City, ID",1,147,"Boise City-Mountain Home-Ontario, ID-OR",N,N,1602,16017,16017,2017-2018
-111.9855312,43.48604732,1022,142179,College of Eastern Idaho,1600 S 25th E,Idaho Falls,ID,83404-5788,16,16019,Bonneville County,13,43.486041,-111.985519,26820,"Idaho Falls, ID",1,292,"Idaho Falls-Rexburg-Blackfoot, ID",N,N,1602,16033,16033,2017-2018
-112.4323242,42.86383822,1023,142276,Idaho State University,921 S 8th Ave,Pocatello,ID,83209,16,16005,Bannock County,13,42.863832,-112.432312,38540,"Pocatello, ID",1,N,N,N,N,1602,16029,16029,2017-2018
-117.0141808,46.72741213,1024,142285,University of Idaho,875 Perimeter Drive MS 2282,Moscow,ID,83844-2282,16,16057,Latah County,32,46.727406,-117.014167,34140,"Moscow, ID",2,446,"Pullman-Moscow, WA-ID",N,N,1601,16005,16005,2017-2018
-116.6780051,43.65228991,1025,142294,The College of Idaho,2112 Cleveland Blvd,Caldwell,ID,83605-4432,16,16027,Canyon County,22,43.652284,-116.677992,14260,"Boise City, ID",1,147,"Boise City-Mountain Home-Ontario, ID-OR",N,N,1601,16010,16010,2017-2018
-117.0248887,46.4122051,1026,142328,Lewis-Clark State College,500 8th Ave,Lewiston,ID,83501-2698,16,16069,Nez Perce County,13,46.412199,-117.024875,30300,"Lewiston, ID-WA",1,N,N,N,N,1601,16006,16006,2017-2018
-116.335522,43.66009695,1027,142337,ITT Technical Institute-Boise,12302 W. Explorer Dr,Boise,ID,83713-1529,16,16001,Ada County,12,43.660091,-116.335509,14260,"Boise City, ID",1,147,"Boise City-Mountain Home-Ontario, ID-OR",N,N,1601,16015,16015,2017-2018
-114.4615575,42.59357302,1028,142407,Aveda Institute-Twin Falls,837 Pole Line Road Suite 103,Twin Falls,ID,83301,16,16083,Twin Falls County,33,42.593567,-114.461545,46300,"Twin Falls, ID",2,N,N,N,N,1602,16024,16024,2017-2018
-117.0011758,46.72953813,1029,142416,Mr Leon's School of Hair Design-Moscow,618 S Main St,Moscow,ID,83843,16,16057,Latah County,32,46.729532,-117.001162,34140,"Moscow, ID",2,446,"Pullman-Moscow, WA-ID",N,N,1601,16005,16005,2017-2018
-116.7989189,47.67569622,1030,142443,North Idaho College,1000 West Garden Avenue,Coeur d'Alene,ID,83814-2199,16,16055,Kootenai County,13,47.67569,-116.798905,17660,"Coeur d'Alene, ID",1,518,"Spokane-Spokane Valley-Coeur d'Alene, WA-ID",N,N,1601,16004,16004,2017-2018
-116.5657961,43.56241692,1031,142461,Northwest Nazarene University,623 S. University Blvd.,Nampa,ID,83686-5897,16,16027,Canyon County,22,43.562411,-116.565783,14260,"Boise City, ID",1,147,"Boise City-Mountain Home-Ontario, ID-OR",N,N,1601,16013,16013,2017-2018
-112.4645662,42.91997022,1032,142489,Elevate Salon Institute-Chubbuck,141 East Chubbuck Road,Chubbuck,ID,83202,16,16005,Bannock County,23,42.919964,-112.464554,38540,"Pocatello, ID",1,N,N,N,N,1602,16028,16028,2017-2018
-111.7824432,43.81841437,1033,142522,Brigham Young University-Idaho,525 S Center,Rexburg,ID,83460-1690,16,16065,Madison County,32,43.818408,-111.782431,39940,"Rexburg, ID",2,292,"Idaho Falls-Rexburg-Blackfoot, ID",N,N,1602,16034,16034,2017-2018
-114.4739135,42.57984301,1034,142559,College of Southern Idaho,315 Falls Ave.,Twin Falls,ID,83301,16,16083,Twin Falls County,33,42.579837,-114.473901,46300,"Twin Falls, ID",2,N,N,N,N,1602,16024,16024,2017-2018
-87.62916175,41.88242185,1035,142832,Adler University,17 North Dearborn Street,Chicago,IL,60602,17,17031,Cook County,11,41.882414,-87.629156,16980,"Chicago-Naperville-Elgin, IL-IN-WI",1,176,"Chicago-Naperville, IL-IN-WI",N,N,1707,17005,17003,2017-2018
-87.62479375,41.87742785,1036,142887,American Academy of Art,332 S Michigan Ave,Chicago,IL,60604-4302,17,17031,Cook County,11,41.87742,-87.624788,16980,"Chicago-Naperville-Elgin, IL-IN-WI",1,176,"Chicago-Naperville, IL-IN-WI",N,N,1707,17005,17003,2017-2018
-87.64690376,41.95497687,1037,142957,American Islamic College,640 W Irving Park RD,Chicago,IL,60613,17,17031,Cook County,11,41.954969,-87.646898,16980,"Chicago-Naperville-Elgin, IL-IN-WI",1,176,"Chicago-Naperville, IL-IN-WI",N,N,1709,17012,17006,2017-2018
-87.62576375,41.88105785,1038,143048,School of the Art Institute of Chicago,36 S Wabash,Chicago,IL,60603,17,17031,Cook County,11,41.88105,-87.625758,16980,"Chicago-Naperville-Elgin, IL-IN-WI",1,176,"Chicago-Naperville, IL-IN-WI",N,N,1707,17005,17003,2017-2018
-90.55057656,41.50237262,1039,143084,Augustana College,639 38th St,Rock Island,IL,61201-2296,17,17161,Rock Island County,13,41.502365,-90.55057,19340,"Davenport-Moline-Rock Island, IA-IL",1,209,"Davenport-Moline, IA-IL",N,N,1717,17072,17036,2017-2018
-88.34902895,41.75363879,1040,143118,Aurora University,347 S Gladstone Ave,Aurora,IL,60506-4892,17,17089,Kane County,21,41.753631,-88.349023,16980,"Chicago-Naperville-Elgin, IL-IN-WI",1,176,"Chicago-Naperville, IL-IN-WI",N,N,1711,17083,17042,2017-2018
-88.20599375,40.11773651,1041,143181,Tricoci University of Beauty Culture-Urbana,"202 East University Street, Suite H, I,& J",Urbana,IL,61801,17,17019,Champaign County,13,40.117729,-88.205988,16580,"Champaign-Urbana, IL",1,N,N,N,N,1713,17103,17052,2017-2018
-89.9244721,38.51641314,1042,143215,Southwestern Illinois College,2500 Carlyle Ave,Belleville,IL,62221-5899,17,17163,St. Clair County,21,38.516406,-89.924466,41180,"St. Louis, MO-IL",1,476,"St. Louis-St. Charles-Farmington, MO-IL",N,N,1712,17114,17057,2017-2018
-84.91069376,39.82625163,1043,143233,Bethany Theological Seminary,615 National Rd W,Richmond,IN,47374-4019,18,18177,Wayne County,32,39.826244,-84.910689,39980,"Richmond, IN",2,458,"Richmond-Connersville, IN",N,N,1806,18056,18027,2017-2018
-90.44780553,41.47729062,1044,143279,Black Hawk College,6600-34th Avenue,Moline,IL,61265-5899,17,17161,Rock Island County,13,41.477283,-90.447799,19340,"Davenport-Moline-Rock Island, IA-IL",1,209,"Davenport-Moline, IA-IL",N,N,1717,17071,17036,2017-2018
-89.87024715,39.28790328,1045,143288,Blackburn College,700 College Ave,Carlinville,IL,62626,17,17117,Macoupin County,32,39.287896,-89.870241,41180,"St. Louis, MO-IL",1,476,"St. Louis-St. Charles-Farmington, MO-IL",N,N,1713,17095,17048,2017-2018
-91.39905164,39.93655631,1046,143297,Blessing Rieman College of Nursing and Health Sciences,Broadway at 11th Street,Quincy,IL,62305-7005,17,17001,Adams County,33,39.936549,-91.399045,39500,"Quincy, IL-MO",2,448,"Quincy-Hannibal, IL-MO",N,N,1718,17094,17047,2017-2018
-91.39154864,39.93509131,1047,143303,Blessing Hospital School of Radiologic Technology,Broadway at 14th,Quincy,IL,62305-7005,17,17001,Adams County,33,39.935084,-91.391542,39500,"Quincy, IL-MO",2,448,"Quincy-Hannibal, IL-MO",N,N,1718,17094,17047,2017-2018
-89.61679221,40.69690354,1048,143358,Bradley University,1501 W Bradley Ave,Peoria,IL,61625-0001,17,17143,Peoria County,12,40.696896,-89.616786,37900,"Peoria, IL",1,427,"Peoria-Canton, IL",N,N,1717,17092,17046,2017-2018
-87.84710474,41.17289872,1049,143376,Paul Mitchell the School-Bradley,1600 N. State Rt. 50 Room 522,Bourbonnais,IL,60914,17,17091,Kankakee County,23,41.172891,-87.847099,28100,"Kankakee, IL",1,176,"Chicago-Naperville, IL-IN-WI",N,N,1702,17079,17040,2017-2018
-87.74089977,41.71605882,1050,143464,Cameo Beauty Academy,9714 S Cicero Ave.,Oak Lawn,IL,60453,17,17031,Cook County,21,41.716051,-87.740894,16980,"Chicago-Naperville-Elgin, IL-IN-WI",1,176,"Chicago-Naperville, IL-IN-WI",N,N,1703,17036,17018,2017-2018
-87.99463386,41.90417784,1051,143473,Cannella School of Hair Design-Villa Park,617 W. NORTH,Villa Park,IL,60181,17,17043,DuPage County,21,41.90417,-87.994628,16980,"Chicago-Naperville-Elgin, IL-IN-WI",1,176,"Chicago-Naperville, IL-IN-WI",N,N,1708,17046,17023,2017-2018
-87.55162771,41.73138883,1052,143482,Cannella School of Hair Design-Chicago,9012 S Commercial,Chicago,IL,60617-4303,17,17031,Cook County,11,41.731381,-87.551622,16980,"Chicago-Naperville-Elgin, IL-IN-WI",1,176,"Chicago-Naperville, IL-IN-WI",N,N,1702,17026,17013,2017-2018
-87.70120376,41.81577084,1053,143491,Cannella School of Hair Design-Chicago,4269 S Archer Ave,Chicago,IL,60632-2549,17,17031,Cook County,11,41.815763,-87.701198,16980,"Chicago-Naperville-Elgin, IL-IN-WI",1,176,"Chicago-Naperville, IL-IN-WI",N,N,1704,17021,17011,2017-2018
-88.28678696,42.03642884,1054,143516,Cannella School of Hair Design-Elgin,117 W Chicago St,Elgin,IL,60120,17,17089,Kane County,12,42.036421,-88.286781,16980,"Chicago-Naperville-Elgin, IL-IN-WI",1,176,"Chicago-Naperville, IL-IN-WI",N,N,1708,17043,17022,2017-2018
-88.13573091,41.97752384,1055,143543,Empire Beauty School-Hanover Park,1166 East Lake St,Hanover Park,IL,60133-5421,17,17043,DuPage County,21,41.977516,-88.135725,16980,"Chicago-Naperville-Elgin, IL-IN-WI",1,176,"Chicago-Naperville, IL-IN-WI",N,N,1708,17056,17028,2017-2018
-87.77157276,41.6038708,1056,143552,Capri Beauty College,15815 S Rob Roy Dr,Oak Forest,IL,60452,17,17031,Cook County,21,41.603863,-87.771567,16980,"Chicago-Naperville-Elgin, IL-IN-WI",1,176,"Chicago-Naperville, IL-IN-WI",N,N,1701,17028,17014,2017-2018
-90.40820947,40.98128754,1057,143613,Carl Sandburg College,2400 Tom L. Wilson Boulevard,Galesburg,IL,61401,17,17095,Knox County,41,40.98128,-90.408203,23660,"Galesburg, IL",2,N,N,N,N,1717,17074,17037,2017-2018
-87.58599473,41.79790284,1058,143659,Catholic Theological Union at Chicago,5416 S Cornell Ave,Chicago,IL,60615-5698,17,17031,Cook County,11,41.797895,-87.585989,16980,"Chicago-Naperville-Elgin, IL-IN-WI",1,176,"Chicago-Naperville, IL-IN-WI",N,N,1701,17025,17013,2017-2018
-90.44935753,41.49032663,1059,143695,La James International College-East Moline,485 Avenue of the Cities,East Moline,IL,61244,17,17161,Rock Island County,21,41.490319,-90.449351,19340,"Davenport-Moline-Rock Island, IA-IL",1,209,"Davenport-Moline, IA-IL",N,N,1717,17072,17036,2017-2018
-87.99834785,41.82812282,1060,143853,Midwestern University-Downers Grove,555 31st Street,Downers Grove,IL,60515-5514,17,17043,DuPage County,21,41.828115,-87.998342,16980,"Chicago-Naperville-Elgin, IL-IN-WI",1,176,"Chicago-Naperville, IL-IN-WI",N,N,1706,17047,17024,2017-2018
-87.63379575,41.88830086,1061,143978,The Chicago School of Professional Psychology at Chicago,325 N Wells Street,Chicago,IL,60654,17,17031,Cook County,11,41.888293,-87.63379,16980,"Chicago-Naperville-Elgin, IL-IN-WI",1,176,"Chicago-Naperville, IL-IN-WI",N,N,1707,17005,17003,2017-2018
-87.60938973,41.71845383,1062,144005,Chicago State University,9501 S. King Drive,Chicago,IL,60628-1598,17,17031,Cook County,11,41.718446,-87.609384,16980,"Chicago-Naperville-Elgin, IL-IN-WI",1,176,"Chicago-Naperville, IL-IN-WI",N,N,1701,17034,17017,2017-2018
-87.59118373,41.78570884,1063,144014,Chicago Theological Seminary,1407 E. 60th Street,Chicago,IL,60637,17,17031,Cook County,11,41.785701,-87.591178,16980,"Chicago-Naperville-Elgin, IL-IN-WI",1,176,"Chicago-Naperville, IL-IN-WI",N,N,1701,17025,17013,2017-2018
-87.59954473,41.78800184,1064,144050,University of Chicago,5801 S Ellis Ave,Chicago,IL,60637,17,17031,Cook County,11,41.787994,-87.599539,16980,"Chicago-Naperville-Elgin, IL-IN-WI",1,176,"Chicago-Naperville, IL-IN-WI",N,N,1701,17025,17013,2017-2018
-87.64343074,41.78026084,1065,144157,City Colleges of Chicago-Kennedy-King College,6301 S Halsted St,Chicago,IL,60621-2709,17,17031,Cook County,11,41.780253,-87.643425,16980,"Chicago-Naperville-Elgin, IL-IN-WI",1,176,"Chicago-Naperville, IL-IN-WI",N,N,1701,17006,17003,2017-2018
-87.67532676,41.87809985,1066,144166,City Colleges of Chicago-Malcolm X College,1900 W Jackson Blvd,Chicago,IL,60612-3197,17,17031,Cook County,11,41.878092,-87.675321,16980,"Chicago-Naperville-Elgin, IL-IN-WI",1,176,"Chicago-Naperville, IL-IN-WI",N,N,1707,17009,17005,2017-2018
-87.58925472,41.71000483,1067,144175,City Colleges of Chicago-Olive-Harvey College,10001 S Woodlawn Ave,Chicago,IL,60628-1696,17,17031,Cook County,11,41.709997,-87.589249,16980,"Chicago-Naperville-Elgin, IL-IN-WI",1,176,"Chicago-Naperville, IL-IN-WI",N,N,1702,17034,17017,2017-2018
-87.65911277,41.96450987,1068,144184,City Colleges of Chicago-Harry S Truman College,1145 W Wilson Ave.,Chicago,IL,60640-6063,17,17031,Cook County,11,41.964502,-87.659107,16980,"Chicago-Naperville-Elgin, IL-IN-WI",1,176,"Chicago-Naperville, IL-IN-WI",N,N,1709,17013,17007,2017-2018
-87.72398677,41.75596283,1069,144193,City Colleges of Chicago-Richard J Daley College,7500 S Pulaski Rd,Chicago,IL,60652-1299,17,17031,Cook County,11,41.755955,-87.723981,16980,"Chicago-Naperville-Elgin, IL-IN-WI",1,176,"Chicago-Naperville, IL-IN-WI",N,N,1703,17022,17011,2017-2018
-87.62660175,41.88607486,1070,144209,City Colleges of Chicago-Harold Washington College,30 E Lake St,Chicago,IL,60601-2449,17,17031,Cook County,11,41.886067,-87.626596,16980,"Chicago-Naperville-Elgin, IL-IN-WI",1,176,"Chicago-Naperville, IL-IN-WI",N,N,1707,17005,17003,2017-2018
-87.7878738,41.95878186,1071,144218,City Colleges of Chicago-Wilbur Wright College,4300 N Narragansett,Chicago,IL,60634-1500,17,17031,Cook County,11,41.958774,-87.787868,16980,"Chicago-Naperville-Elgin, IL-IN-WI",1,176,"Chicago-Naperville, IL-IN-WI",N,N,1705,17019,17010,2017-2018
-87.62467275,41.87426885,1072,144281,Columbia College Chicago,600 South Michigan,Chicago,IL,60605-1996,17,17031,Cook County,11,41.874261,-87.624667,16980,"Chicago-Naperville-Elgin, IL-IN-WI",1,176,"Chicago-Naperville, IL-IN-WI",N,N,1707,17005,17003,2017-2018
-87.8094878,41.89870385,1073,144351,Concordia University-Chicago,7400 Augusta,River Forest,IL,60305-1499,17,17031,Cook County,21,41.898696,-87.809482,16980,"Chicago-Naperville-Elgin, IL-IN-WI",1,176,"Chicago-Naperville, IL-IN-WI",N,N,1707,17007,17004,2017-2018
-87.63836875,41.89804486,1074,144467,Le Cordon Bleu College of Culinary Arts-Chicago,361 W Chestnut,Chicago,IL,60610,17,17031,Cook County,11,41.898037,-87.638363,16980,"Chicago-Naperville-Elgin, IL-IN-WI",1,176,"Chicago-Naperville, IL-IN-WI",N,N,1707,17009,17005,2017-2018
-87.62741875,41.88256585,1075,144485,Coyne College,1 North State Street,Chicago,IL,60602-3304,17,17031,Cook County,11,41.882558,-87.627413,16980,"Chicago-Naperville-Elgin, IL-IN-WI",1,176,"Chicago-Naperville, IL-IN-WI",N,N,1707,17005,17003,2017-2018
-87.63500675,41.87853485,1076,144500,City Colleges of Chicago-District Office,226 W. Jackson,Chicago,IL,60606,17,17031,Cook County,11,41.878527,-87.635001,16980,"Chicago-Naperville-Elgin, IL-IN-WI",1,176,"Chicago-Naperville, IL-IN-WI",N,N,1707,17006,17003,2017-2018
-87.58788957,40.12754655,1077,144564,Danville Area Community College,2000 E Main St,Danville,IL,61832-5118,17,17183,Vermilion County,13,40.127539,-87.587884,19180,"Danville, IL",1,N,N,N,N,1715,17104,17052,2017-2018
-87.63631958,40.07581654,1078,144573,Tricoci University of Beauty Culture-Danville,2500 Georgetown Rd,Danville,IL,61832,17,17183,Vermilion County,23,40.075809,-87.636314,19180,"Danville, IL",1,N,N,N,N,1715,17104,17052,2017-2018
-87.62724575,41.87762585,1079,144740,DePaul University,1 E Jackson Blvd,Chicago,IL,60604,17,17031,Cook County,11,41.877618,-87.62724,16980,"Chicago-Naperville-Elgin, IL-IN-WI",1,176,"Chicago-Naperville, IL-IN-WI",N,N,1707,17005,17003,2017-2018
-88.00738986,41.83344182,1080,144777,DeVry University-Administrative Office,3005 Highland Parkway,Downers Grove,IL,60515-5683,17,17043,DuPage County,21,41.833434,-88.007384,16980,"Chicago-Naperville-Elgin, IL-IN-WI",1,176,"Chicago-Naperville, IL-IN-WI",N,N,1706,17047,17024,2017-2018
-88.29409298,42.24918788,1081,144795,Cosmetology & Spa Academy,700 E. Terra Cotta,Crystal Lake,IL,60014,17,17111,McHenry County,21,42.24918,-88.294087,16980,"Chicago-Naperville-Elgin, IL-IN-WI",1,176,"Chicago-Naperville, IL-IN-WI",N,N,1714,17064,17032,2017-2018
-88.07164088,41.84158482,1082,144865,College of DuPage,425 Fawell Blvd.,Glen Ellyn,IL,60137-6599,17,17043,DuPage County,21,41.841577,-88.071635,16980,"Chicago-Naperville-Elgin, IL-IN-WI",1,176,"Chicago-Naperville, IL-IN-WI",N,N,1706,17048,17024,2017-2018
-87.62479875,41.87131685,1083,144883,East-West University,816 S Michigan Ave,Chicago,IL,60605,17,17031,Cook County,11,41.871309,-87.624793,16980,"Chicago-Naperville-Elgin, IL-IN-WI",1,176,"Chicago-Naperville, IL-IN-WI",N,N,1707,17005,17003,2017-2018
-88.17566369,39.4798504,1084,144892,Eastern Illinois University,600 Lincoln Avenue,Charleston,IL,61920,17,17029,Coles County,32,39.479843,-88.175658,16660,"Charleston-Mattoon, IL",2,N,N,N,N,1715,17110,17055,2017-2018
-88.32194597,42.01807384,1085,144944,Elgin Community College,1700 Spartan Drive,Elgin,IL,60123-7193,17,17089,Kane County,12,42.018066,-88.32194,16980,"Chicago-Naperville-Elgin, IL-IN-WI",1,176,"Chicago-Naperville, IL-IN-WI",N,N,1708,17043,17022,2017-2018
-87.94537484,41.89717184,1086,144962,Elmhurst College,190 Prospect Ave,Elmhurst,IL,60126-3096,17,17043,DuPage County,21,41.897164,-87.945369,16980,"Chicago-Naperville-Elgin, IL-IN-WI",1,176,"Chicago-Naperville, IL-IN-WI",N,N,1705,17047,17024,2017-2018
-89.26963011,40.71482756,1087,144971,Eureka College,300 E. College Avenue,Eureka,IL,61530,17,17203,Woodford County,31,40.71482,-89.269624,37900,"Peoria, IL",1,427,"Peoria-Canton, IL",N,N,1718,17106,17053,2017-2018
-88.33947399,42.21926787,1088,145099,First Institute Inc,790 McHenry Avenue,Crystal Lake,IL,60014,17,17111,McHenry County,21,42.21926,-88.339468,16980,"Chicago-Naperville-Elgin, IL-IN-WI",1,176,"Chicago-Naperville, IL-IN-WI",N,N,1706,17066,17033,2017-2018
-87.74473377,41.77149583,1089,145239,Fox College,6640 S. Cicero,Bedford Park,IL,60638,17,17031,Cook County,21,41.771488,-87.744728,16980,"Chicago-Naperville-Elgin, IL-IN-WI",1,176,"Chicago-Naperville, IL-IN-WI",N,N,1703,17022,17011,2017-2018
-87.67550278,42.05622888,1090,145275,Garrett-Evangelical Theological Seminary,2121 Sheridan Road,Evanston,IL,60201-3298,17,17031,Cook County,13,42.056221,-87.675497,16980,"Chicago-Naperville-Elgin, IL-IN-WI",1,176,"Chicago-Naperville, IL-IN-WI",N,N,1709,17018,17009,2017-2018
-91.40422464,39.92640131,1091,145309,Gem City College,700 State St,Quincy,IL,62301,17,17001,Adams County,33,39.926394,-91.404218,39500,"Quincy, IL-MO",2,448,"Quincy-Hannibal, IL-MO",N,N,1718,17094,17047,2017-2018
-87.71644673,41.44911077,1092,145336,Governors State University,1 University Pky,University Park,IL,60484,17,17197,Will County,41,41.449103,-87.716441,16980,"Chicago-Naperville-Elgin, IL-IN-WI",1,176,"Chicago-Naperville, IL-IN-WI",N,N,1702,17080,17040,2017-2018
-90.03878232,40.55296949,1093,145354,Graham Hospital School of Nursing,210 W Walnut St,Canton,IL,61520-2497,17,17057,Fulton County,32,40.552962,-90.038776,15900,"Canton, IL",2,427,"Peoria-Canton, IL",N,N,1717,17091,17046,2017-2018
-89.40824599,38.89416923,1094,145372,Greenville University,315 E. College Ave,Greenville,IL,62246,17,17005,Bond County,32,38.894162,-89.40824,41180,"St. Louis, MO-IL",1,476,"St. Louis-St. Charles-Farmington, MO-IL",N,N,1715,17107,17054,2017-2018
-88.28910897,42.09405485,1095,145406,Hair Professionals Academy of Cosmetology,825 B6 Village Quarter Road,West Dundee,IL,60118,17,17089,Kane County,21,42.094047,-88.289103,16980,"Chicago-Naperville-Elgin, IL-IN-WI",1,176,"Chicago-Naperville, IL-IN-WI",N,N,1706,17066,17033,2017-2018
-88.71815108,41.96222881,1096,145424,Hair Professionals Career College,2245 Gateway Drive,Sycamore,IL,60178,17,17037,DeKalb County,23,41.962221,-88.718145,16980,"Chicago-Naperville-Elgin, IL-IN-WI",1,176,"Chicago-Naperville, IL-IN-WI",N,N,1716,17070,17035,2017-2018
-88.36473295,41.68259878,1097,145433,Hair Professionals School of Cosmetology,5460 U.S. Highway 34,Oswego,IL,60543,17,17093,Kendall County,21,41.682591,-88.364727,16980,"Chicago-Naperville-Elgin, IL-IN-WI",1,176,"Chicago-Naperville, IL-IN-WI",N,N,1714,17050,17025,2017-2018
-87.62468375,41.87412085,1098,145460,Harrington College of Design,600 S. Michigan Avenue,Chicago,IL,60605,17,17031,Cook County,11,41.874113,-87.624678,16980,"Chicago-Naperville-Elgin, IL-IN-WI",1,176,"Chicago-Naperville, IL-IN-WI",N,N,1707,17005,17003,2017-2018
-87.7608798,42.01011087,1099,145497,Hebrew Theological College,7135 N Carpenter Rd,Skokie,IL,60077,17,17031,Cook County,13,42.010103,-87.760874,16980,"Chicago-Naperville-Elgin, IL-IN-WI",1,176,"Chicago-Naperville, IL-IN-WI",N,N,1709,17016,17008,2017-2018
-89.67342639,42.2833518,1100,145521,Highland Community College,2998 W Pearl City Rd,Freeport,IL,61032-9341,17,17177,Stephenson County,32,42.283344,-89.67342,23300,"Freeport, IL",2,466,"Rockford-Freeport-Rochelle, IL",N,N,1717,17089,17045,2017-2018
-87.85963786,42.30007691,1101,145558,Rosalind Franklin University of Medicine and Science,3333 Green Bay Road,North Chicago,IL,60064-3095,17,17097,Lake County,21,42.300069,-87.859632,16980,"Chicago-Naperville-Elgin, IL-IN-WI",1,176,"Chicago-Naperville, IL-IN-WI",N,N,1710,17058,17029,2017-2018
-87.65050876,41.87184485,1102,145600,University of Illinois at Chicago,601 S Morgan,Chicago,IL,60607,17,17031,Cook County,11,41.871837,-87.650503,16980,"Chicago-Naperville-Elgin, IL-IN-WI",1,176,"Chicago-Naperville, IL-IN-WI",N,N,1707,17009,17005,2017-2018
-88.09731288,41.77757681,1103,145619,Benedictine University,5700 College Rd,Lisle,IL,60532-0900,17,17043,DuPage County,21,41.777569,-88.097307,16980,"Chicago-Naperville-Elgin, IL-IN-WI",1,176,"Chicago-Naperville, IL-IN-WI",N,N,1706,17042,17021,2017-2018
-87.62302174,41.83545485,1104,145628,Illinois College of Optometry,3241 S Michigan Ave,Chicago,IL,60616-3878,17,17031,Cook County,11,41.835447,-87.623016,16980,"Chicago-Naperville-Elgin, IL-IN-WI",1,176,"Chicago-Naperville, IL-IN-WI",N,N,1701,17006,17003,2017-2018
-88.22911976,40.10472551,1105,145637,University of Illinois at Urbana-Champaign,601 E John Street,Champaign,IL,61820-5711,17,17019,Champaign County,13,40.104718,-88.229114,16580,"Champaign-Urbana, IL",1,N,N,N,N,1713,17103,17052,2017-2018
-88.99202001,40.48990854,1106,145646,Illinois Wesleyan University,1312 N Park St,Bloomington,IL,61702-2900,17,17113,McLean County,13,40.489901,-88.992014,14010,"Bloomington, IL",1,145,"Bloomington-Pontiac, IL",N,N,1713,17088,17044,2017-2018
-89.52485619,40.70724255,1107,145682,Illinois Central College,1 College Drive,East Peoria,IL,61635-0001,17,17179,Tazewell County,21,40.707235,-89.52485,37900,"Peoria, IL",1,427,"Peoria-Canton, IL",N,N,1718,17088,17044,2017-2018
-90.2461773,39.73130734,1108,145691,Illinois College,1101 West College Ave,Jacksonville,IL,62650-2299,17,17137,Morgan County,32,39.7313,-90.246171,27300,"Jacksonville, IL",2,522,"Springfield-Jacksonville-Lincoln, IL",N,N,1718,17100,17050,2017-2018
-88.0995946,38.73592027,1109,145707,Olney Central College,305 N West Street,Olney,IL,62450,17,17159,Richland County,33,38.735913,-88.099589,N,N,0,N,N,N,N,1715,17109,17055,2017-2018
-87.62732674,41.83130785,1110,145725,Illinois Institute of Technology,10 West 35th Street,Chicago,IL,60616,17,17031,Cook County,11,41.8313,-87.627321,16980,"Chicago-Naperville-Elgin, IL-IN-WI",1,176,"Chicago-Naperville, IL-IN-WI",N,N,1701,17006,17003,2017-2018
-87.62377775,41.88601386,1111,145770,Argosy University-Chicago,"225 N. Michigan Ave, Ste 1300",Chicago,IL,60601,17,17031,Cook County,11,41.886006,-87.623772,16980,"Chicago-Naperville-Elgin, IL-IN-WI",1,176,"Chicago-Naperville, IL-IN-WI",N,N,1707,17005,17003,2017-2018
-88.99006401,40.50941054,1112,145813,Illinois State University,North and School Streets,Normal,IL,61790-1000,17,17113,McLean County,22,40.509403,-88.990058,14010,"Bloomington, IL",1,145,"Bloomington-Pontiac, IL",N,N,1713,17105,17053,2017-2018
-89.10089312,41.30744767,1113,145831,Illinois Valley Community College,815 N Orlando Smith Road,Oglesby,IL,61348-9692,17,17099,LaSalle County,41,41.30744,-89.100887,36860,"Ottawa-Peru, IL",2,176,"Chicago-Naperville, IL-IN-WI",N,N,1716,17076,17038,2017-2018
-87.62722275,41.87607185,1114,145886,Institute for Clinical Social Work,"401 South State Street, Suite 822",Chicago,IL,60605-1229,17,17031,Cook County,11,41.876064,-87.627217,16980,"Chicago-Naperville-Elgin, IL-IN-WI",1,176,"Chicago-Naperville, IL-IN-WI",N,N,1707,17005,17003,2017-2018
-87.62751775,41.88245585,1115,146010,Sanford-Brown College-Chicago,One North State Street - Suite 400,Chicago,IL,60602-3300,17,17031,Cook County,11,41.882448,-87.627512,16980,"Chicago-Naperville-Elgin, IL-IN-WI",1,176,"Chicago-Naperville, IL-IN-WI",N,N,1707,17005,17003,2017-2018
-89.09021581,37.74746004,1116,146205,John A Logan College,700 Logan College Road,Carterville,IL,62918-2500,17,17199,Williamson County,23,37.747453,-89.09021,16060,"Carbondale-Marion, IL",1,N,N,N,N,1712,17117,17059,2017-2018
-87.62857275,41.87797385,1117,146241,The John Marshall Law School,315 S Plymouth Ct,Chicago,IL,60604,17,17031,Cook County,11,41.877966,-87.628567,16980,"Chicago-Naperville-Elgin, IL-IN-WI",1,176,"Chicago-Naperville, IL-IN-WI",N,N,1707,17006,17003,2017-2018
-91.33583462,39.91374831,1118,146278,John Wood Community College,1301 S 48th Street,Quincy,IL,62305-8736,17,17001,Adams County,41,39.913741,-91.335828,39500,"Quincy, IL-MO",2,448,"Quincy-Hannibal, IL-MO",N,N,1718,17094,17047,2017-2018
-88.18099087,41.50054276,1119,146296,Joliet Junior College,1215 Houbolt Rd,Joliet,IL,60431-8938,17,17197,Will County,21,41.500535,-88.180985,16980,"Chicago-Naperville-Elgin, IL-IN-WI",1,176,"Chicago-Naperville, IL-IN-WI",N,N,1711,17086,17043,2017-2018
-88.29134196,42.06176185,1120,146339,Judson University,1151 N State St,Elgin,IL,60123-1498,17,17089,Kane County,12,42.061754,-88.291336,16980,"Chicago-Naperville-Elgin, IL-IN-WI",1,176,"Chicago-Naperville, IL-IN-WI",N,N,1708,17066,17033,2017-2018
-87.85105274,41.09818571,1121,146348,Kankakee Community College,100 College Drive,Kankakee,IL,60901,17,17091,Kankakee County,13,41.098178,-87.851047,28100,"Kankakee, IL",1,176,"Chicago-Naperville, IL-IN-WI",N,N,1702,17079,17040,2017-2018
-89.1919799,38.56211918,1122,146366,Kaskaskia College,27210 College Rd,Centralia,IL,62801,17,17027,Clinton County,41,38.562112,-89.191974,41180,"St. Louis, MO-IL",1,476,"St. Louis-St. Charles-Farmington, MO-IL",N,N,1715,17108,17054,2017-2018
-87.64894176,41.89876386,1123,146393,Kendall College,900 N. North Branch St.,Chicago,IL,60642,17,17031,Cook County,11,41.898756,-87.648936,16980,"Chicago-Naperville-Elgin, IL-IN-WI",1,176,"Chicago-Naperville, IL-IN-WI",N,N,1705,17010,17005,2017-2018
-88.88053012,41.93824179,1124,146418,Kishwaukee College,21193 Malta Rd,Malta,IL,60150-9699,17,17037,DeKalb County,41,41.938234,-88.880524,16980,"Chicago-Naperville-Elgin, IL-IN-WI",1,176,"Chicago-Naperville, IL-IN-WI",N,N,1716,17070,17035,2017-2018
-90.37317145,40.94307154,1125,146427,Knox College,2 E South St,Galesburg,IL,61401-9999,17,17095,Knox County,32,40.943064,-90.373165,23660,"Galesburg, IL",2,N,N,N,N,1717,17093,17047,2017-2018
-89.11846013,41.35434568,1126,146454,Educators of Beauty College of Cosmetology-La Salle,3602 MARQUETTE RD STE 2,PERU,IL,61354-1450,17,17099,LaSalle County,32,41.354338,-89.118454,36860,"Ottawa-Peru, IL",2,176,"Chicago-Naperville, IL-IN-WI",N,N,1716,17076,17038,2017-2018
-88.01229691,42.35417191,1127,146472,College of Lake County,19351 W Washington St.,Grayslake,IL,60030-1198,17,17097,Lake County,21,42.354164,-88.012291,16980,"Chicago-Naperville-Elgin, IL-IN-WI",1,176,"Chicago-Naperville, IL-IN-WI",N,N,1710,17062,17031,2017-2018
-87.82745985,42.24958191,1128,146481,Lake Forest College,555 N Sheridan Road,Lake Forest,IL,60045-2399,17,17097,Lake County,21,42.249574,-87.827454,16980,"Chicago-Naperville-Elgin, IL-IN-WI",1,176,"Chicago-Naperville, IL-IN-WI",N,N,1710,17058,17029,2017-2018
-87.89320986,42.2434399,1129,146490,Lake Forest Graduate School of Management,1905 W. Field Court,Lake Forest,IL,60045,17,17097,Lake County,21,42.243432,-87.893204,16980,"Chicago-Naperville-Elgin, IL-IN-WI",1,176,"Chicago-Naperville, IL-IN-WI",N,N,1710,17058,17029,2017-2018
-88.38084074,39.41697638,1130,146506,Lake Land College,5001 Lake Land Blvd,Mattoon,IL,61938,17,17029,Coles County,32,39.416969,-88.380835,16660,"Charleston-Mattoon, IL",2,N,N,N,N,1715,17110,17055,2017-2018
-87.64438459,40.13855755,1131,146533,Lakeview College of Nursing,903 N Logan Ave,Danville,IL,61832,17,17183,Vermilion County,13,40.13855,-87.644379,19180,"Danville, IL",1,N,N,N,N,1715,17104,17052,2017-2018
-90.19441122,38.9516312,1132,146603,Lewis and Clark Community College,5800 Godfrey Rd,Godfrey,IL,62035,17,17119,Madison County,23,38.951624,-90.194405,41180,"St. Louis, MO-IL",1,476,"St. Louis-St. Charles-Farmington, MO-IL",N,N,1713,17111,17056,2017-2018
-88.07903785,41.60543978,1133,146612,Lewis University,One University Parkway,Romeoville,IL,60446-2200,17,17197,Will County,21,41.605432,-88.079032,16980,"Chicago-Naperville-Elgin, IL-IN-WI",1,176,"Chicago-Naperville, IL-IN-WI",N,N,1703,17085,17043,2017-2018
-89.34672708,40.14893146,1134,146667,Lincoln Christian University,100 Campus View Drive,Lincoln,IL,62656-2111,17,17107,Logan County,32,40.148924,-89.346721,30660,"Lincoln, IL",2,522,"Springfield-Jacksonville-Lincoln, IL",N,N,1718,17087,17044,2017-2018
-89.36153609,40.15544946,1135,146676,Lincoln College,300 Keokuk St,Lincoln,IL,62656,17,17107,Logan County,32,40.155442,-89.36153,30660,"Lincoln, IL",2,522,"Springfield-Jacksonville-Lincoln, IL",N,N,1718,17087,17044,2017-2018
-89.61125512,39.72121837,1136,146685,Lincoln Land Community College,5250 Shepherd Rd,Springfield,IL,62794-9256,17,17167,Sangamon County,12,39.721211,-89.611249,44100,"Springfield, IL",1,522,"Springfield-Jacksonville-Lincoln, IL",N,N,1713,17099,17050,2017-2018
-87.83216781,41.90558485,1137,146700,Lincoln College of Technology-Melrose Park,8317 W North Avenue,Melrose Park,IL,60160-1605,17,17031,Cook County,21,41.905577,-87.832162,16980,"Chicago-Naperville-Elgin, IL-IN-WI",1,176,"Chicago-Naperville, IL-IN-WI",N,N,1704,17007,17004,2017-2018
-87.65687777,42.00077287,1138,146719,Loyola University Chicago,1032 W. Sheridan Rd,Chicago,IL,60660,17,17031,Cook County,11,42.000765,-87.656872,16980,"Chicago-Naperville-Elgin, IL-IN-WI",1,176,"Chicago-Naperville, IL-IN-WI",N,N,1709,17014,17007,2017-2018
-87.59898373,41.79563784,1139,146728,Lutheran School of Theology at Chicago,1100 E 55th St,Chicago,IL,60615-5134,17,17031,Cook County,11,41.79563,-87.598978,16980,"Chicago-Naperville-Elgin, IL-IN-WI",1,176,"Chicago-Naperville, IL-IN-WI",N,N,1701,17025,17013,2017-2018
-90.56886856,41.48493162,1140,146755,Trinity College of Nursing & Health Sciences,2122 - 25th Avenue,Rock Island,IL,61201-5317,17,17161,Rock Island County,13,41.484924,-90.568862,19340,"Davenport-Moline-Rock Island, IA-IL",1,209,"Davenport-Moline, IA-IL",N,N,1717,17072,17036,2017-2018
-87.65715776,41.93969286,1141,146807,Steven Papageorge Hair Academy,1113-15 W Belmont,Chicago,IL,60657,17,17031,Cook County,11,41.939685,-87.657152,16980,"Chicago-Naperville-Elgin, IL-IN-WI",1,176,"Chicago-Naperville, IL-IN-WI",N,N,1705,17012,17006,2017-2018
-87.62666275,41.88190585,1142,146816,MacCormac College,29 E. Madison,Chicago,IL,60602-4405,17,17031,Cook County,11,41.881898,-87.626657,16980,"Chicago-Naperville-Elgin, IL-IN-WI",1,176,"Chicago-Naperville, IL-IN-WI",N,N,1707,17005,17003,2017-2018
-90.22399229,39.73092534,1143,146825,MacMurray College,447 East College Ave,Jacksonville,IL,62650-2590,17,17137,Morgan County,32,39.730918,-90.223986,27300,"Jacksonville, IL",2,522,"Springfield-Jacksonville-Lincoln, IL",N,N,1718,17100,17050,2017-2018
-87.59851673,41.79597784,1144,146977,McCormick Theological Seminary,5460 S. University,Chicago,IL,60615,17,17031,Cook County,11,41.79597,-87.598511,16980,"Chicago-Naperville-Elgin, IL-IN-WI",1,176,"Chicago-Naperville, IL-IN-WI",N,N,1701,17025,17013,2017-2018
-88.36896201,42.25911888,1145,147004,McHenry County College,8900 US Hwy 14,Crystal Lake,IL,60012-2761,17,17111,McHenry County,41,42.259111,-88.368956,16980,"Chicago-Naperville-Elgin, IL-IN-WI",1,176,"Chicago-Naperville, IL-IN-WI",N,N,1714,17064,17032,2017-2018
-89.81682808,38.60816116,1146,147013,McKendree University,701 College Rd,Lebanon,IL,62254-1291,17,17163,St. Clair County,21,38.608154,-89.816822,41180,"St. Louis, MO-IL",1,476,"St. Louis-St. Charles-Farmington, MO-IL",N,N,1712,17114,17057,2017-2018
-87.62462475,41.87403485,1147,147031,Meadville Lombard Theological School,610 S. Michigan Avenue,Chicago,IL,60605,17,17031,Cook County,11,41.874027,-87.624619,16980,"Chicago-Naperville-Elgin, IL-IN-WI",1,176,"Chicago-Naperville, IL-IN-WI",N,N,1707,17005,17003,2017-2018
-89.68287024,40.78040755,1148,147129,Methodist College,7600 N. Academic Drive,Peoria,IL,61615,17,17143,Peoria County,12,40.7804,-89.682864,37900,"Peoria, IL",1,427,"Peoria-Canton, IL",N,N,1718,17073,17037,2017-2018
-89.59886521,40.76192355,1149,147165,Midstate College,411 W Northmoor Road,Peoria,IL,61614-3595,17,17143,Peoria County,12,40.761916,-89.598859,37900,"Peoria, IL",1,427,"Peoria-Canton, IL",N,N,1718,17073,17037,2017-2018
-88.97630395,39.84261942,1150,147244,Millikin University,1184 W Main St,Decatur,IL,62522-2084,17,17115,Macon County,13,39.842612,-88.976298,19500,"Decatur, IL",1,N,N,N,N,1713,17096,17048,2017-2018
-90.63731652,40.91483152,1151,147341,Monmouth College,700 E Broadway,Monmouth,IL,61462-1998,17,17187,Warren County,32,40.914824,-90.63731,N,N,0,N,N,N,N,1717,17094,17047,2017-2018
-87.63346475,41.89782986,1152,147369,Moody Bible Institute,820 N LaSalle Blvd,Chicago,IL,60610-3284,17,17031,Cook County,11,41.897822,-87.633459,16980,"Chicago-Naperville-Elgin, IL-IN-WI",1,176,"Chicago-Naperville, IL-IN-WI",N,N,1707,17005,17003,2017-2018
-83.45190754,42.36683616,1153,14736901,Moody Theological Seminary and Graduate School--Michigan,41550 East Ann Arbor Trail,Plymouth,MI,48170-4308,26,26163,Wayne County,21,42.366828,-83.451903,19820,"Detroit-Warren-Dearborn, MI",1,220,"Detroit-Warren-Ann Arbor, MI",N,N,2611,26020,26007,2017-2018
-117.4006111,47.67575115,1154,14736902,Moody Bible Institute-Spokane,611 E Indiana Ave,Spokane,WA,99207-4308,53,53063,Spokane County,12,47.675745,-117.400597,44060,"Spokane-Spokane Valley, WA",1,518,"Spokane-Spokane Valley-Coeur d'Alene, WA-ID",N,N,5305,53003,53003,2017-2018
-87.83692079,41.69462081,1155,147378,Moraine Valley Community College,9000 W. College Parkway,Palos Hills,IL,60465-0937,17,17031,Cook County,21,41.694613,-87.836915,16980,"Chicago-Naperville-Elgin, IL-IN-WI",1,176,"Chicago-Naperville, IL-IN-WI",N,N,1703,17036,17018,2017-2018
-89.96596942,41.79710771,1156,147396,Morrison Institute of Technology,701 Portland Ave,Morrison,IL,61270-2959,17,17195,Whiteside County,32,41.7971,-89.965963,44580,"Sterling, IL",2,221,"Dixon-Sterling, IL",N,N,1717,17071,17036,2017-2018
-87.76231178,41.82431084,1157,147411,Morton College,3801 S Central Ave,Cicero,IL,60804-4398,17,17031,Cook County,21,41.824303,-87.762306,16980,"Chicago-Naperville-Elgin, IL-IN-WI",1,176,"Chicago-Naperville, IL-IN-WI",N,N,1703,17021,17011,2017-2018
-88.93357994,39.84608843,1158,147439,Mr John's School of Cosmetology Esthetics & Nails-Decatur,1745 E Eldorado St.,Decatur,IL,62521,17,17115,Macon County,13,39.846081,-88.933574,19500,"Decatur, IL",1,N,N,N,N,1713,17096,17048,2017-2018
-87.62470475,41.88010085,1159,147536,National Louis University,122 S Michigan Ave,Chicago,IL,60603,17,17031,Cook County,11,41.880093,-87.624699,16980,"Chicago-Naperville-Elgin, IL-IN-WI",1,176,"Chicago-Naperville, IL-IN-WI",N,N,1707,17005,17003,2017-2018
-88.01317686,41.86170483,1160,147590,National University of Health Sciences,200 E Roosevelt Rd,Lombard,IL,60148-4583,17,17043,DuPage County,21,41.861697,-88.013171,16980,"Chicago-Naperville-Elgin, IL-IN-WI",1,176,"Chicago-Naperville, IL-IN-WI",N,N,1708,17048,17024,2017-2018
-87.81511882,42.02760887,1161,147642,Niles School of Cosmetology,8057 N. Milwaukee Avenue,Niles,IL,60714,17,17031,Cook County,21,42.027601,-87.815113,16980,"Chicago-Naperville-Elgin, IL-IN-WI",1,176,"Chicago-Naperville, IL-IN-WI",N,N,1709,17020,17010,2017-2018
-88.14279589,41.77576781,1162,147660,North Central College,30 N Brainard St,Naperville,IL,60540,17,17043,DuPage County,12,41.77576,-88.14279,16980,"Chicago-Naperville-Elgin, IL-IN-WI",1,176,"Chicago-Naperville, IL-IN-WI",N,N,1706,17041,17021,2017-2018
-87.70995378,41.97527587,1163,147679,North Park University,3225 W Foster Ave,Chicago,IL,60625-4895,17,17031,Cook County,11,41.975268,-87.709948,16980,"Chicago-Naperville-Elgin, IL-IN-WI",1,176,"Chicago-Naperville, IL-IN-WI",N,N,1705,17015,17008,2017-2018
-87.99986086,41.84240983,1164,147697,Northern Baptist Theological Seminary,660 E Butterfield Rd,Lombard,IL,60148-5698,17,17043,DuPage County,21,41.842402,-87.999855,16980,"Chicago-Naperville-Elgin, IL-IN-WI",1,176,"Chicago-Naperville, IL-IN-WI",N,N,1706,17048,17024,2017-2018
-88.76643409,41.9338768,1165,147703,Northern Illinois University,1425 W. Lincoln Hwy.,Dekalb,IL,60115-2828,17,17037,DeKalb County,23,41.933869,-88.766428,16980,"Chicago-Naperville-Elgin, IL-IN-WI",1,176,"Chicago-Naperville, IL-IN-WI",N,N,1716,17070,17035,2017-2018
-87.7596208,41.96867186,1166,147749,Northwestern College-Chicago Campus,4829 North Lipps Avenue,Chicago,IL,60630,17,17031,Cook County,11,41.968664,-87.759615,16980,"Chicago-Naperville-Elgin, IL-IN-WI",1,176,"Chicago-Naperville, IL-IN-WI",N,N,1705,17019,17010,2017-2018
-87.67986378,42.05036388,1167,147767,Northwestern University,633 Clark St,Evanston,IL,60208,17,17031,Cook County,13,42.050356,-87.679858,16980,"Chicago-Naperville-Elgin, IL-IN-WI",1,176,"Chicago-Naperville, IL-IN-WI",N,N,1709,17018,17009,2017-2018
-87.71898879,41.98040687,1168,147776,Northeastern Illinois University,5500 N Saint Louis Ave,Chicago,IL,60625-4699,17,17031,Cook County,11,41.980399,-87.718983,16980,"Chicago-Naperville-Elgin, IL-IN-WI",1,176,"Chicago-Naperville, IL-IN-WI",N,N,1705,17015,17008,2017-2018
-87.88064984,42.06190087,1169,147800,Oakton Community College,1600 E Golf Rd.,Des Plaines,IL,60016-1268,17,17031,Cook County,13,42.061893,-87.880644,16980,"Chicago-Naperville-Elgin, IL-IN-WI",1,176,"Chicago-Naperville, IL-IN-WI",N,N,1710,17055,17028,2017-2018
-89.55712619,40.66583954,1170,147819,Oehrlein School of Cosmetology,100 Meadow Ave,East Peoria,IL,61611,17,17179,Tazewell County,21,40.665832,-89.55712,37900,"Peoria, IL",1,427,"Peoria-Canton, IL",N,N,1718,17091,17046,2017-2018
-87.87517075,41.15524472,1171,147828,Olivet Nazarene University,One University Avenue,Bourbonnais,IL,60914-2271,17,17091,Kankakee County,23,41.155237,-87.875165,28100,"Kankakee, IL",1,176,"Chicago-Naperville, IL-IN-WI",N,N,1702,17079,17040,2017-2018
-88.29036478,40.13197051,1172,147916,Parkland College,2400 W Bradley Ave,Champaign,IL,61821-1899,17,17019,Champaign County,13,40.131963,-88.290359,16580,"Champaign-Urbana, IL",1,N,N,N,N,1713,17103,17052,2017-2018
-87.63894872,41.52532379,1173,148007,Prairie State College,202 South Halsted Street,Chicago Heights,IL,60411-8226,17,17031,Cook County,21,41.525316,-87.638943,16980,"Chicago-Naperville-Elgin, IL-IN-WI",1,176,"Chicago-Naperville, IL-IN-WI",N,N,1702,17080,17040,2017-2018
-90.35029126,38.94884219,1174,148016,Principia College,1 Maybeck Place,Elsah,IL,62028-9799,17,17083,Jersey County,41,38.948835,-90.350285,41180,"St. Louis, MO-IL",1,476,"St. Louis-St. Charles-Farmington, MO-IL",N,N,1713,17111,17056,2017-2018
-88.14885187,41.52312976,1175,148098,Professional's Choice Hair Design Academy,2719 W Jefferson St,Joliet,IL,60435,17,17197,Will County,21,41.523122,-88.148846,16980,"Chicago-Naperville-Elgin, IL-IN-WI",1,176,"Chicago-Naperville, IL-IN-WI",N,N,1711,17086,17043,2017-2018
-91.38598164,39.93890531,1176,148131,Quincy University,1800 College Ave,Quincy,IL,62301-2699,17,17001,Adams County,33,39.938898,-91.385975,39500,"Quincy, IL-MO",2,448,"Quincy-Hannibal, IL-MO",N,N,1718,17094,17047,2017-2018
-91.35732663,39.94958531,1177,148140,Vatterott College-Quincy,3609 North Marx Drive,Quincy,IL,62305,17,17001,Adams County,33,39.949578,-91.35732,39500,"Quincy, IL-MO",2,448,"Quincy-Hannibal, IL-MO",N,N,1718,17094,17047,2017-2018
-87.63763775,41.88873086,1178,148177,The Illinois Institute of Art-Chicago,"350 N Orleans St, Suite 136-L",Chicago,IL,60654-1593,17,17031,Cook County,11,41.888723,-87.637632,16980,"Chicago-Naperville-Elgin, IL-IN-WI",1,176,"Chicago-Naperville, IL-IN-WI",N,N,1707,17006,17003,2017-2018
-88.91828879,38.13148812,1179,148256,Rend Lake College,468 N Ken Gray Pkwy,Ina,IL,62846,17,17081,Jefferson County,42,38.131481,-88.918283,34500,"Mount Vernon, IL",2,N,N,N,N,1712,17115,17058,2017-2018
-88.89413093,39.88389444,1180,148292,Richland Community College,One College Park,Decatur,IL,62521-8512,17,17115,Macon County,13,39.883887,-88.894125,19500,"Decatur, IL",1,N,N,N,N,1713,17101,17051,2017-2018
-87.62707375,41.87628585,1181,148335,Robert Morris University Illinois,401 S State Street,Chicago,IL,60605,17,17031,Cook County,11,41.876278,-87.627068,16980,"Chicago-Naperville-Elgin, IL-IN-WI",1,176,"Chicago-Naperville, IL-IN-WI",N,N,1707,17005,17003,2017-2018
-88.99355019,42.30618185,1182,148380,Rock Valley College,3301 N Mulford Rd,Rockford,IL,61114-5699,17,17201,Winnebago County,12,42.306174,-88.993544,40420,"Rockford, IL",1,466,"Rockford-Freeport-Rochelle, IL",N,N,1716,17068,17034,2017-2018
-89.0272262,42.25573084,1183,148399,Madison Media Institute-Rockford Career College,1130 South Alpine Road,Rockford,IL,61108,17,17201,Winnebago County,12,42.255723,-89.02722,40420,"Rockford, IL",1,466,"Rockford-Freeport-Rochelle, IL",N,N,1716,17067,17034,2017-2018
-89.0195422,42.27064684,1184,148405,Rockford University,5050 E State St,Rockford,IL,61108-2311,17,17201,Winnebago County,12,42.270639,-89.019536,40420,"Rockford, IL",1,466,"Rockford-Freeport-Rochelle, IL",N,N,1716,17068,17034,2017-2018
-87.62495775,41.87606285,1185,148487,Roosevelt University,430 S Michigan Ave,Chicago,IL,60605-1394,17,17031,Cook County,11,41.876055,-87.624952,16980,"Chicago-Naperville-Elgin, IL-IN-WI",1,176,"Chicago-Naperville, IL-IN-WI",N,N,1707,17005,17003,2017-2018
-87.82300881,41.90268585,1186,148496,Dominican University,7900 W Division Street,River Forest,IL,60305,17,17031,Cook County,21,41.902678,-87.823003,16980,"Chicago-Naperville-Elgin, IL-IN-WI",1,176,"Chicago-Naperville, IL-IN-WI",N,N,1704,17007,17004,2017-2018
-87.66858676,41.87474985,1187,148511,Rush University,600 S. Paulina St. STE 440,Chicago,IL,60612,17,17031,Cook County,11,41.874742,-87.668581,16980,"Chicago-Naperville-Elgin, IL-IN-WI",1,176,"Chicago-Naperville, IL-IN-WI",N,N,1707,17009,17005,2017-2018
-89.5903282,40.70124854,1188,148575,Saint Francis Medical Center College of Nursing,511 NE Greenleaf St,Peoria,IL,61603-3783,17,17143,Peoria County,12,40.701241,-89.590322,37900,"Peoria, IL",1,427,"Peoria-Canton, IL",N,N,1717,17092,17046,2017-2018
-88.09606285,41.53223277,1189,148584,University of St Francis,500 N Wilcox St,Joliet,IL,60435-6188,17,17197,Will County,21,41.532225,-88.096057,16980,"Chicago-Naperville-Elgin, IL-IN-WI",1,176,"Chicago-Naperville, IL-IN-WI",N,N,1711,17086,17043,2017-2018
-89.64532614,39.80760938,1190,148593,St. John's College-Department of Nursing,729 E. Carpenter St,Springfield,IL,62702,17,17167,Sangamon County,12,39.807602,-89.64532,44100,"Springfield, IL",1,522,"Springfield-Jacksonville-Lincoln, IL",N,N,1713,17096,17048,2017-2018
-87.71475476,41.70720682,1191,148627,Saint Xavier University,3700 W 103rd St,Chicago,IL,60655,17,17031,Cook County,11,41.707199,-87.714749,16980,"Chicago-Naperville-Elgin, IL-IN-WI",1,176,"Chicago-Naperville, IL-IN-WI",N,N,1703,17036,17018,2017-2018
-89.61680212,39.72953137,1192,148654,University of Illinois at Springfield,One University Plaza,Springfield,IL,62703-5407,17,17167,Sangamon County,12,39.729524,-89.616796,44100,"Springfield, IL",1,522,"Springfield-Jacksonville-Lincoln, IL",N,N,1713,17099,17050,2017-2018
-89.59648932,41.81766673,1193,148672,Sauk Valley Community College,173 Illinois Rt 2,Dixon,IL,61021-9112,17,17103,Lee County,41,41.817659,-89.596483,19940,"Dixon, IL",2,221,"Dixon-Sterling, IL",N,N,1716,17090,17045,2017-2018
-89.03352575,37.27020495,1194,148821,Shawnee Community College,8364 Shawnee College Rd,Ullin,IL,62992,17,17153,Pulaski County,43,37.270198,-89.03352,N,N,0,N,N,N,N,1712,17118,17059,2017-2018
-87.66281177,41.97242187,1195,148876,Saint Augustine College,1333-45 W. Argyle St.,Chicago,IL,60640-3593,17,17031,Cook County,11,41.972414,-87.662806,16980,"Chicago-Naperville-Elgin, IL-IN-WI",1,176,"Chicago-Naperville, IL-IN-WI",N,N,1709,17013,17007,2017-2018
-88.0002679,42.2807099,1196,148885,University of Saint Mary of the Lake,1000 E Maple Ave,Mundelein,IL,60060-1174,17,17097,Lake County,21,42.280702,-88.000262,16980,"Chicago-Naperville-Elgin, IL-IN-WI",1,176,"Chicago-Naperville, IL-IN-WI",N,N,1710,17059,17030,2017-2018
-88.43663662,37.75174707,1197,148937,Southeastern Illinois College,3575 College Road,Harrisburg,IL,62946,17,17165,Saline County,42,37.75174,-88.436631,N,N,0,N,N,N,N,1715,17118,17059,2017-2018
-87.67592276,41.82276384,1198,148955,National Latino Education Institute,2011 W Pershing Rd,Chicago,IL,60609-2205,17,17031,Cook County,11,41.822756,-87.675917,16980,"Chicago-Naperville-Elgin, IL-IN-WI",1,176,"Chicago-Naperville, IL-IN-WI",N,N,1704,17002,17001,2017-2018
-87.62479075,41.87388885,1199,148982,Spertus College,610 S Michigan Ave,Chicago,IL,60605,17,17031,Cook County,11,41.873881,-87.624785,16980,"Chicago-Naperville-Elgin, IL-IN-WI",1,176,"Chicago-Naperville, IL-IN-WI",N,N,1707,17005,17003,2017-2018
-90.07233633,40.52799848,1200,148991,Spoon River College,23235 North County 22,Canton,IL,61520-8622,17,17057,Fulton County,41,40.527991,-90.07233,15900,"Canton, IL",2,427,"Peoria-Canton, IL",N,N,1717,17091,17046,2017-2018
-88.99197419,42.31015485,1201,149028,Saint Anthony College of Nursing,3301 N. Mulford Road,Rockford,IL,61114,17,17201,Winnebago County,12,42.310147,-88.991968,40420,"Rockford, IL",1,466,"Rockford-Freeport-Rochelle, IL",N,N,1716,17068,17034,2017-2018
-89.67336839,42.2824008,1202,14902801,Saint Anthony College of Nursing - Highland Community College Campus,2998 W. Pearl City Rd,Freeport,IL,61032-0000,17,17177,Stephenson County,32,42.282393,-89.673362,23300,"Freeport, IL",2,466,"Rockford-Freeport-Rochelle, IL",N,N,1717,17089,17045,2017-2018
-89.59781432,41.81770773,1203,14902802,Saint Anthony College of Nursing - Sauk Valley Community College Campus,173 Illinois Route 2,Dixon,IL,61021-9112,17,17103,Lee County,41,41.8177,-89.597808,19940,"Dixon, IL",2,221,"Dixon-Sterling, IL",N,N,1716,17090,17045,2017-2018
-89.69252834,41.78858872,1204,149204,Educators of Beauty College of Cosmetology-Sterling,211 E Third St,Sterling,IL,61081-3611,17,17195,Whiteside County,32,41.788581,-89.692522,44580,"Sterling, IL",2,221,"Dixon-Sterling, IL",N,N,1717,17071,17036,2017-2018
-89.21727884,37.71420002,1205,149222,Southern Illinois University-Carbondale,Lincoln Drive,Carbondale,IL,62901-4512,17,17077,Jackson County,13,37.714193,-89.217273,16060,"Carbondale-Marion, IL",1,N,N,N,N,1712,17115,17058,2017-2018
-89.99778515,38.79395618,1206,149231,Southern Illinois University-Edwardsville,Il State Rte 157,Edwardsville,IL,62026-1259,17,17119,Madison County,21,38.793949,-89.997779,41180,"St. Louis, MO-IL",1,476,"St. Louis-St. Charles-Farmington, MO-IL",N,N,1713,17112,17056,2017-2018
-89.23222184,37.70648002,1207,149240,Southern Illinois University-System Office,1400 Douglas Drive,Carbondale,IL,62901-6801,17,17077,Jackson County,41,37.706473,-89.232216,16060,"Carbondale-Marion, IL",1,N,N,N,N,1712,17115,17058,2017-2018
-87.62671575,41.88545986,1208,149310,Taylor Business Institute,"180 North Wabash Avenue, Fifth Floor",Chicago,IL,60601,17,17031,Cook County,11,41.885452,-87.62671,16980,"Chicago-Naperville-Elgin, IL-IN-WI",1,176,"Chicago-Naperville, IL-IN-WI",N,N,1707,17005,17003,2017-2018
-87.71755579,41.97554387,1209,149329,Telshe Yeshiva-Chicago,3535 West Foster,Chicago,IL,60625,17,17031,Cook County,11,41.975536,-87.71755,16980,"Chicago-Naperville-Elgin, IL-IN-WI",1,176,"Chicago-Naperville, IL-IN-WI",N,N,1705,17015,17008,2017-2018
-87.61912872,41.60643481,1210,149365,South Suburban College,15800 South State Street,South Holland,IL,60473-1200,17,17031,Cook County,21,41.606427,-87.619123,16980,"Chicago-Naperville-Elgin, IL-IN-WI",1,176,"Chicago-Naperville, IL-IN-WI",N,N,1702,17029,17015,2017-2018
-89.65574808,39.17614427,1211,149499,Tri-County Beauty Academy,219 N State St,Litchfield,IL,62056,17,17135,Montgomery County,32,39.176137,-89.655742,N,N,0,N,N,N,N,1713,17095,17048,2017-2018
-87.78397877,41.66769481,1212,149505,Trinity Christian College,6601 W College Dr,Palos Heights,IL,60463-0929,17,17031,Cook County,21,41.667687,-87.783973,16980,"Chicago-Naperville-Elgin, IL-IN-WI",1,176,"Chicago-Naperville, IL-IN-WI",N,N,1701,17027,17014,2017-2018
-87.88085686,42.19795289,1213,149514,Trinity International University-Illinois,2065 Half Day Rd,Deerfield,IL,60015-1283,17,17097,Lake County,21,42.197945,-87.880851,16980,"Chicago-Naperville-Elgin, IL-IN-WI",1,176,"Chicago-Naperville, IL-IN-WI",N,N,1710,17058,17029,2017-2018
-87.84106182,41.91608985,1214,149532,Triton College,2000 5th Ave,River Grove,IL,60171-1995,17,17031,Cook County,21,41.916082,-87.841056,16980,"Chicago-Naperville-Elgin, IL-IN-WI",1,176,"Chicago-Naperville, IL-IN-WI",N,N,1705,17078,17039,2017-2018
-87.64093175,41.85089585,1215,14953201,Triton College - Intl Union of Operating Engr Local 399 Trning Fac.,2260 South Grove Street,Chicago,IL,60616-1823,17,17031,Cook County,11,41.850888,-87.640926,16980,"Chicago-Naperville-Elgin, IL-IN-WI",1,176,"Chicago-Naperville, IL-IN-WI",N,N,1707,17002,17001,2017-2018
-89.71084515,39.76672737,1216,149550,University of Spa & Cosmetology Arts,2913 W White Oaks Dr,Springfield,IL,62704,17,17167,Sangamon County,12,39.76672,-89.710839,44100,"Springfield, IL",1,522,"Springfield-Jacksonville-Lincoln, IL",N,N,1718,17099,17050,2017-2018
-88.22838676,40.10849551,1217,149587,University of Illinois University Administration,"364 Henry Administration Building, 506 S Wright Street",Urbana,IL,61801,17,17019,Champaign County,13,40.108488,-88.228381,16580,"Champaign-Urbana, IL",1,N,N,N,N,1713,17103,17052,2017-2018
-87.62914375,41.83684085,1218,149639,VanderCook College of Music,3140 South Federal Street,Chicago,IL,60616-3731,17,17031,Cook County,11,41.836833,-87.629138,16980,"Chicago-Naperville-Elgin, IL-IN-WI",1,176,"Chicago-Naperville, IL-IN-WI",N,N,1701,17006,17003,2017-2018
-88.45993099,41.79596279,1219,149727,Waubonsee Community College,Rte 47 at Waubonsee Drive,Sugar Grove,IL,60554-9454,17,17089,Kane County,41,41.795955,-88.459925,16980,"Chicago-Naperville-Elgin, IL-IN-WI",1,176,"Chicago-Naperville, IL-IN-WI",N,N,1714,17050,17025,2017-2018
-87.68529677,41.90748786,1220,149763,Resurrection University,1431 N. Claremont,Chicago,IL,60622,17,17031,Cook County,11,41.90748,-87.685291,16980,"Chicago-Naperville-Elgin, IL-IN-WI",1,176,"Chicago-Naperville, IL-IN-WI",N,N,1704,17004,17002,2017-2018
-90.68690549,40.46809344,1221,149772,Western Illinois University,1 University Circle,Macomb,IL,61455,17,17109,McDonough County,33,40.468086,-90.686899,31380,"Macomb, IL",2,N,N,N,N,1718,17093,17047,2017-2018
-88.09964889,41.87018383,1222,149781,Wheaton College,501 College Ave,Wheaton,IL,60187-5593,17,17043,DuPage County,21,41.870176,-88.099643,16980,"Chicago-Naperville-Elgin, IL-IN-WI",1,176,"Chicago-Naperville, IL-IN-WI",N,N,1706,17048,17024,2017-2018
-88.0728169,42.08183686,1223,149842,William Rainey Harper College,1200 W Algonquin Rd,Palatine,IL,60067-7398,17,17031,Cook County,21,42.081829,-88.072811,16980,"Chicago-Naperville-Elgin, IL-IN-WI",1,176,"Chicago-Naperville, IL-IN-WI",N,N,1706,17054,17027,2017-2018
-86.44526835,41.33796582,1224,150048,Ancilla College,9601 S. Union Road,Donaldson,IN,46513-0001,18,18099,Marshall County,42,41.337958,-86.445263,38500,"Plymouth, IN",2,515,"South Bend-Elkhart-Mishawaka, IN-MI",N,N,1802,18017,18018,2017-2018
-85.66432001,40.11277564,1225,150066,Anderson University,1100 E 5th St,Anderson,IN,46012-3495,18,18095,Madison County,13,40.112768,-85.664315,26900,"Indianapolis-Carmel-Anderson, IN",1,294,"Indianapolis-Carmel-Muncie, IN",N,N,1805,18036,18026,2017-2018
-85.40904794,40.20343867,1226,150136,Ball State University,2000 University Ave,Muncie,IN,47306,18,18035,Delaware County,13,40.203431,-85.409043,34620,"Muncie, IN",1,294,"Indianapolis-Carmel-Muncie, IN",N,N,1806,18034,18025,2017-2018
-86.19469131,41.6784069,1227,150145,Bethel College-Indiana,1001 Bethel Circle,Mishawaka,IN,46545-5591,18,18141,St. Joseph County,13,41.678399,-86.194686,43780,"South Bend-Mishawaka, IN-MI",1,515,"South Bend-Elkhart-Mishawaka, IN-MI",N,N,1802,18005,18010,2017-2018
-86.17217213,39.83740757,1228,150163,Butler University,4600 Sunset Ave,Indianapolis,IN,46208,18,18097,Marion County,11,39.8374,-86.172167,26900,"Indianapolis-Carmel-Anderson, IN",1,294,"Indianapolis-Carmel-Muncie, IN",N,N,1807,18096,18033,2017-2018
-87.49412869,41.67101583,1229,150172,Calumet College of Saint Joseph,2400 New York Ave,Whiting,IN,46394,18,18089,Lake County,21,41.671008,-87.494123,16980,"Chicago-Naperville-Elgin, IL-IN-WI",1,176,"Chicago-Naperville, IL-IN-WI",N,N,1801,18001,18002,2017-2018
-86.17855614,39.83268057,1230,150215,Christian Theological Seminary,1000 W 42nd St,Indianapolis,IN,46208-3301,18,18097,Marion County,11,39.832673,-86.178551,26900,"Indianapolis-Carmel-Anderson, IN",1,294,"Indianapolis-Carmel-Muncie, IN",N,N,1807,18096,18033,2017-2018
-87.06633654,41.46758181,1231,150251,College of Court Reporting Inc,455 West Lincolnway,Valparaiso,IN,46385,18,18127,Porter County,21,41.467574,-87.066331,16980,"Chicago-Naperville-Elgin, IL-IN-WI",1,176,"Chicago-Naperville, IL-IN-WI",N,N,1801,18004,18005,2017-2018
-85.10994493,41.13932886,1232,150288,Concordia Theological Seminary,6600 N Clinton St,Fort Wayne,IN,46825-4996,18,18003,Allen County,11,41.139321,-85.10994,23060,"Fort Wayne, IN",1,258,"Fort Wayne-Huntington-Auburn, IN",N,N,1803,18084,18015,2017-2018
-87.46702367,41.55589281,1233,150303,Tricoci University of Beauty Culture-Highland,2549 Highway Ave,Highland,IN,46322,18,18089,Lake County,21,41.555885,-87.467018,16980,"Chicago-Naperville-Elgin, IL-IN-WI",1,176,"Chicago-Naperville, IL-IN-WI",N,N,1801,18012,18001,2017-2018
-86.86036832,39.6409115,1234,150400,DePauw University,313 S Locust St,Greencastle,IN,46135-1772,18,18133,Putnam County,32,39.640904,-86.860363,26900,"Indianapolis-Carmel-Anderson, IN",1,294,"Indianapolis-Carmel-Muncie, IN",N,N,1804,18044,18037,2017-2018
-87.44709466,41.4855398,1235,150428,Don Roberts School of Hair Design,152 East US Route 30,Schererville,IN,46375,18,18089,Lake County,21,41.485532,-87.447089,16980,"Chicago-Naperville-Elgin, IL-IN-WI",1,176,"Chicago-Naperville, IL-IN-WI",N,N,1801,18015,18006,2017-2018
-87.07779655,41.47272181,1236,150437,Don Roberts Beauty School,1354 West Lincolnway,Valparaiso,IN,46385,18,18127,Porter County,21,41.472714,-87.077791,16980,"Chicago-Naperville-Elgin, IL-IN-WI",1,176,"Chicago-Naperville, IL-IN-WI",N,N,1801,18004,18005,2017-2018
-84.91504176,39.82343863,1237,150455,Earlham College,801 National Rd West,Richmond,IN,47374-4095,18,18177,Wayne County,32,39.823431,-84.915037,39980,"Richmond, IN",2,458,"Richmond-Connersville, IN",N,N,1806,18056,18027,2017-2018
-87.53164938,37.97155615,1238,150534,University of Evansville,1800 Lincoln Avenue,Evansville,IN,47722,18,18163,Vanderburgh County,12,37.971549,-87.531644,21780,"Evansville, IN-KY",1,N,N,N,N,1808,18077,18050,2017-2018
-86.04718707,39.47830551,1239,150604,Franklin College,101 Branigin Blvd,Franklin,IN,46131-2623,18,18081,Johnson County,21,39.478298,-86.047182,26900,"Indianapolis-Carmel-Anderson, IN",1,294,"Indianapolis-Carmel-Muncie, IN",N,N,1809,18047,18041,2017-2018
-85.82780018,41.5635899,1240,150668,Goshen College,1700 S Main St,Goshen,IN,46526-4794,18,18039,Elkhart County,13,41.563582,-85.827795,21140,"Elkhart-Goshen, IN",1,515,"South Bend-Elkhart-Mishawaka, IN-MI",N,N,1802,18049,18012,2017-2018
-85.81423315,41.22595784,1241,150677,Grace College and Theological Seminary,200 Seminary Dr,Winona Lake,IN,46590-1274,18,18085,Kosciusko County,32,41.22595,-85.814228,47700,"Warsaw, IN",2,N,N,N,N,1803,18018,18009,2017-2018
-86.0130101,40.03612761,1242,150695,Hair Fashions By Kaye Beauty College-Noblesville,1111 S 10th St,Noblesville,IN,46060-0000,18,18057,Hamilton County,21,40.03612,-86.013005,26900,"Indianapolis-Carmel-Anderson, IN",1,294,"Indianapolis-Carmel-Muncie, IN",N,N,1805,18029,18020,2017-2018
-85.46005583,38.71564939,1243,150756,Hanover College,517 Ball Drive,Hanover,IN,47243,18,18077,Jefferson County,32,38.715642,-85.460051,31500,"Madison, IN",2,350,"Louisville/Jefferson County--Elizabethtown--Madison, KY-IN",N,N,1806,18066,18045,2017-2018
-87.38339646,39.47036644,1244,150765,J Michael Harrold Beauty Academy,2232 Wabash Ave,Terre Haute,IN,47807,18,18167,Vigo County,13,39.470359,-87.383391,45460,"Terre Haute, IN",1,N,N,N,N,1808,18043,18038,2017-2018
-86.25382732,41.6990039,1245,150774,Holy Cross College,54515 State Road 933 North,Notre Dame,IN,46556-0308,18,18141,St. Joseph County,21,41.698996,-86.253822,43780,"South Bend-Mishawaka, IN-MI",1,515,"South Bend-Elkhart-Mishawaka, IN-MI",N,N,1802,18008,18010,2017-2018
-85.76891889,38.3121073,1246,150853,PJ's College of Cosmetology-Clarksville,1414 Blackiston Mill Rd,Clarksville,IN,47129,18,18019,Clark County,21,38.3121,-85.768914,31140,"Louisville/Jefferson County, KY-IN",1,350,"Louisville/Jefferson County--Elizabethtown--Madison, KY-IN",N,N,1809,18071,18046,2017-2018
-86.37976019,39.83783956,1247,15085301,PJ's College of Cosmetology- Brownsburg,1012 C East Main Street,Brownsburg,IN,46112-1462,18,18063,Hendricks County,21,39.837832,-86.379755,26900,"Indianapolis-Carmel-Anderson, IN",1,294,"Indianapolis-Carmel-Muncie, IN",N,N,1804,18028,18024,2017-2018
-85.47175981,38.32479632,1248,15085302,PJ's College of Cosmetology-Crestwood,6539 West Highway 22,Crestwood,KY,40014-9323,21,21185,Oldham County,21,38.324789,-85.471755,31140,"Louisville/Jefferson County, KY-IN",1,350,"Louisville/Jefferson County--Elizabethtown--Madison, KY-IN",N,N,2104,21033,21026,2017-2018
-85.72351288,38.3001053,1249,15085303,PJ's College of Cosmetology- Jeffersonville,1710 E. 10th Street,Jeffersonville,IN,47130-6290,18,18019,Clark County,21,38.300098,-85.723508,31140,"Louisville/Jefferson County, KY-IN",1,350,"Louisville/Jefferson County--Elizabethtown--Madison, KY-IN",N,N,1809,18071,18046,2017-2018
-85.49732203,40.8981598,1250,150941,Huntington University,2303 College Ave,Huntington,IN,46750,18,18069,Huntington County,32,40.898152,-85.497317,26540,"Huntington, IN",2,258,"Fort Wayne-Huntington-Auburn, IN",N,N,1803,18050,18017,2017-2018
-86.15821813,39.80376056,1251,150987,Ivy Tech Community College,50 W. Fall Creek Parkway N. Drive,Indianapolis,IN,46208-5752,18,18097,Marion County,11,39.803753,-86.158213,26900,"Indianapolis-Carmel-Anderson, IN",1,294,"Indianapolis-Carmel-Muncie, IN",N,N,1807,18099,18033,2017-2018
-86.24830132,41.66162389,1252,15098701,Ivy Tech Community College-Northcentral,220 Dean Johnson Blvd,South Bend,IN,46601-3415,18,18141,St. Joseph County,12,41.661616,-86.248296,43780,"South Bend-Mishawaka, IN-MI",1,515,"South Bend-Elkhart-Mishawaka, IN-MI",N,N,1802,18006,18010,2017-2018
-85.90302701,39.25021947,1253,15098702,Ivy Tech Community College-Columbus,4475 Central Ave,Columbus,IN,47203-1868,18,18005,Bartholomew County,13,39.250212,-85.903022,18020,"Columbus, IN",1,294,"Indianapolis-Carmel-Muncie, IN",N,N,1806,18059,18041,2017-2018
-85.40608893,40.15600066,1254,15098703,Ivy Tech Community College-East Central,4301 S Cowan Rd,Muncie,IN,47302-9448,18,18035,Delaware County,41,40.155993,-85.406084,34620,"Muncie, IN",1,294,"Indianapolis-Carmel-Muncie, IN",N,N,1806,18035,18025,2017-2018
-86.10696817,40.50480469,1255,15098704,Ivy Tech Community College-Kokomo,1815 E Morgan St,Kokomo,IN,46901-1373,18,18067,Howard County,13,40.504797,-86.106963,29020,"Kokomo, IN",1,316,"Kokomo-Peru, IN",N,N,1804,18030,18021,2017-2018
-86.83961338,40.38365263,1256,15098705,Ivy Tech Community College-Lafayette,3101 South Creasy Ln,Lafayette,IN,47905-1373,18,18157,Tippecanoe County,13,40.383645,-86.839608,29200,"Lafayette-West Lafayette, IN",1,320,"Lafayette-West Lafayette-Frankfort, IN",N,N,1804,18013,18022,2017-2018
-85.11200993,41.11236385,1257,15098706,Ivy Tech Community College-Northeast,3800 N Anthony Blvd,Fort Wayne,IN,46805-1489,18,18003,Allen County,11,41.112356,-85.112005,23060,"Fort Wayne, IN",1,258,"Fort Wayne-Huntington-Auburn, IN",N,N,1803,18085,18015,2017-2018
-85.7626529,38.38980432,1258,15098707,Ivy Tech Community College-South Central,8204 Hwy 311,Sellersburg,IN,47172-1897,18,18019,Clark County,21,38.389797,-85.762648,31140,"Louisville/Jefferson County, KY-IN",1,350,"Louisville/Jefferson County--Elizabethtown--Madison, KY-IN",N,N,1809,18070,18045,2017-2018
-87.57318139,38.01172416,1259,15098708,Ivy Tech Community College-Southwest,3501 First Ave,Evansville,IN,47710-3398,18,18163,Vanderburgh County,12,38.011717,-87.573176,21780,"Evansville, IN-KY",1,N,N,N,N,1808,18076,18049,2017-2018
-87.39071345,39.36994742,1260,15098709,Ivy Tech Community College-Wabash Valley,8000 South Education Drive,Terre Haute,IN,47802-4898,18,18167,Vigo County,23,39.36994,-87.390708,45460,"Terre Haute, IN",1,N,N,N,N,1808,18046,18038,2017-2018
-84.87779575,39.86947764,1261,15098710,Ivy Tech Community College-Richmond,2357 Chester Blvd,Richmond,IN,47374-1298,18,18177,Wayne County,41,39.86947,-84.877791,39980,"Richmond, IN",2,458,"Richmond-Connersville, IN",N,N,1806,18056,18027,2017-2018
-87.32127663,41.55559781,1262,15098711,Ivy Tech Community College-Northwest,1440 E 35th Ave,Gary,IN,46409-1499,18,18089,Lake County,13,41.55559,-87.321271,16980,"Chicago-Naperville-Elgin, IL-IN-WI",1,176,"Chicago-Naperville, IL-IN-WI",N,N,1801,18014,18003,2017-2018
-85.37630581,38.78043241,1263,15098712,Ivy Tech Community College-Southeast,590 Ivy Tech Dr,Madison,IN,47250-1881,18,18077,Jefferson County,32,38.780425,-85.376301,31500,"Madison, IN",2,350,"Louisville/Jefferson County--Elizabethtown--Madison, KY-IN",N,N,1806,18066,18045,2017-2018
-86.5970412,39.16669142,1264,15098713,Ivy Tech Community College-Bloomington,200 Daniels Way,Bloomington,IN,47404-9272,18,18105,Monroe County,41,39.166684,-86.597036,14020,"Bloomington, IN",1,144,"Bloomington-Bedford, IN",N,N,1809,18046,18040,2017-2018
-86.15800313,39.80384156,1265,15098714,Ivy Tech Community College-Central Indiana,50 W Fall Creek Parkway N Dr,Indianapolis,IN,46208-9272,18,18097,Marion County,11,39.803834,-86.157998,26900,"Indianapolis-Carmel-Anderson, IN",1,294,"Indianapolis-Carmel-Muncie, IN",N,N,1807,18099,18033,2017-2018
-85.10896693,41.11728585,1266,151102,Indiana University-Purdue University-Fort Wayne,2101 E Coliseum Blvd,Fort Wayne,IN,46805-1499,18,18003,Allen County,11,41.117278,-85.108962,23060,"Fort Wayne, IN",1,258,"Fort Wayne-Huntington-Auburn, IN",N,N,1803,18085,18015,2017-2018
-86.17222213,39.77295556,1267,151111,Indiana University-Purdue University-Indianapolis,425 University Blvd,Indianapolis,IN,46202-5143,18,18097,Marion County,11,39.772948,-86.172217,26900,"Indianapolis-Carmel-Anderson, IN",1,294,"Indianapolis-Carmel-Muncie, IN",N,N,1807,18097,18036,2017-2018
-86.14761412,39.76714956,1268,151166,Harrison College-Indianapolis,550 East Washington Street,Indianapolis,IN,46204-2611,18,18097,Marion County,11,39.767142,-86.147609,26900,"Indianapolis-Carmel-Anderson, IN",1,294,"Indianapolis-Carmel-Muncie, IN",N,N,1807,18100,18034,2017-2018
-85.67673701,40.06236063,1269,15116601,Harrison College-Anderson,140 E 53rd St,Anderson,IN,46013-1843,18,18095,Madison County,13,40.062353,-85.676732,26900,"Indianapolis-Carmel-Anderson, IN",1,294,"Indianapolis-Carmel-Muncie, IN",N,N,1805,18036,18025,2017-2018
-85.90005101,39.24962747,1270,15116602,Harrison College-Columbus,2222 Poshard Dr,Columbus,IN,47203-1843,18,18005,Bartholomew County,13,39.24962,-85.900046,18020,"Columbus, IN",1,294,"Indianapolis-Carmel-Muncie, IN",N,N,1806,18059,18041,2017-2018
-87.33215444,39.44961444,1271,15116604,Harrison College-Terre Haute,1378 South SR 46,Terre Haute,IN,47803-1843,18,18167,Vigo County,41,39.449607,-87.332149,45460,"Terre Haute, IN",1,N,N,N,N,1808,18043,18038,2017-2018
-86.8936594,40.41799664,1272,15116605,Harrison College-Lafayette,323 Columbia St.,Lafayette,IN,47901-1843,18,18157,Tippecanoe County,13,40.417989,-86.893654,29200,"Lafayette-West Lafayette, IN",1,320,"Lafayette-West Lafayette-Frankfort, IN",N,N,1804,18027,18007,2017-2018
-86.02292908,39.74975956,1273,15116606,Harrison College-Indianapolis East,8150 Brookville Road,Indianapolis,IN,46239-1843,18,18097,Marion County,11,39.749752,-86.022924,26900,"Indianapolis-Carmel-Anderson, IN",1,294,"Indianapolis-Carmel-Muncie, IN",N,N,1807,18089,18032,2017-2018
-87.49469737,37.99547816,1274,15116607,Harrison College-Evansville,4601 Theatre Dr,Evansville,IN,47715-4601,18,18163,Vanderburgh County,12,37.995471,-87.494692,21780,"Evansville, IN-KY",1,N,N,N,N,1808,18078,18050,2017-2018
-85.12010293,41.13791786,1275,15116608,Harrison College-Fort Wayne,6413 N Clinton St,Fort Wayne,IN,46825-4911,18,18003,Allen County,11,41.13791,-85.120098,23060,"Fort Wayne, IN",1,258,"Fort Wayne-Huntington-Auburn, IN",N,N,1803,18081,18015,2017-2018
-86.26486617,39.92683758,1276,15116609,Harrison College-Northwest,6300 Technology Center Drive,Indianapolis,IN,46278-4911,18,18011,Boone County,21,39.92683,-86.264861,26900,"Indianapolis-Carmel-Anderson, IN",1,294,"Indianapolis-Carmel-Muncie, IN",N,N,1805,18024,18029,2017-2018
-85.88702721,41.68030591,1277,15116610,Harrison College-Elkhart,881 Parkway Avenue,Elkhart,IN,46516-4911,18,18039,Elkhart County,41,41.680298,-85.887022,21140,"Elkhart-Goshen, IN",1,515,"South Bend-Elkhart-Mishawaka, IN-MI",N,N,1802,18049,18012,2017-2018
-86.13397411,39.70957855,1278,151263,University of Indianapolis,1400 E Hanna Ave,Indianapolis,IN,46227-3697,18,18097,Marion County,11,39.709571,-86.133969,26900,"Indianapolis-Carmel-Anderson, IN",1,294,"Indianapolis-Carmel-Muncie, IN",N,N,1807,18097,18036,2017-2018
-85.11648393,41.07837285,1279,151290,Indiana Institute of Technology,1600 E Washington Blvd,Fort Wayne,IN,46803-1228,18,18003,Allen County,11,41.078365,-85.116479,23060,"Fort Wayne, IN",1,258,"Fort Wayne-Huntington-Auburn, IN",N,N,1803,18080,18015,2017-2018
-87.67721942,37.96238114,1280,151306,University of Southern Indiana,8600 University Blvd,Evansville,IN,47712,18,18163,Vanderburgh County,22,37.962374,-87.677214,21780,"Evansville, IN-KY",1,N,N,N,N,1808,18076,18049,2017-2018
-87.40785146,39.46908044,1281,151324,Indiana State University,210 N 7th St,Terre Haute,IN,47809,18,18167,Vigo County,13,39.469073,-87.407846,45460,"Terre Haute, IN",1,N,N,N,N,1808,18043,18038,2017-2018
-86.13205318,40.46006968,1282,151333,Indiana University-Kokomo,2300 S Washington St,Kokomo,IN,46904-9003,18,18067,Howard County,13,40.460062,-86.132048,29020,"Kokomo, IN",1,316,"Kokomo-Peru, IN",N,N,1804,18030,18021,2017-2018
-86.22199631,41.66533189,1283,151342,Indiana University-South Bend,1700 Mishawaka Ave,South Bend,IN,46634-7111,18,18141,St. Joseph County,12,41.665324,-86.221991,43780,"South Bend-Mishawaka, IN-MI",1,515,"South Bend-Elkhart-Mishawaka, IN-MI",N,N,1802,18006,18010,2017-2018
-86.52656418,39.16609743,1284,151351,Indiana University-Bloomington,107 South Indiana Ave.,Bloomington,IN,47405-7000,18,18105,Monroe County,13,39.16609,-86.526559,14020,"Bloomington, IN",1,144,"Bloomington-Bedford, IN",N,N,1809,18061,18040,2017-2018
-87.33725463,41.55733181,1285,151360,Indiana University-Northwest,3400 Broadway,Gary,IN,46408-1197,18,18089,Lake County,13,41.557324,-87.337249,16980,"Chicago-Naperville-Elgin, IL-IN-WI",1,176,"Chicago-Naperville, IL-IN-WI",N,N,1801,18014,18003,2017-2018
-85.81998991,38.34519831,1286,151379,Indiana University-Southeast,4201 Grant Line Rd,New Albany,IN,47150,18,18043,Floyd County,21,38.345191,-85.819985,31140,"Louisville/Jefferson County, KY-IN",1,350,"Louisville/Jefferson County--Elizabethtown--Madison, KY-IN",N,N,1809,18072,18046,2017-2018
-84.88192776,39.86871464,1287,151388,Indiana University-East,2325 Chester Blvd,Richmond,IN,47374-1289,18,18177,Wayne County,41,39.868707,-84.881923,39980,"Richmond, IN",2,458,"Richmond-Connersville, IN",N,N,1806,18056,18027,2017-2018
-85.25779097,41.03501383,1288,151458,International Business College-Fort Wayne,5699 Coventry Lane,Fort Wayne,IN,46804-7145,18,18003,Allen County,11,41.035006,-85.257786,23060,"Fort Wayne, IN",1,258,"Fort Wayne-Huntington-Auburn, IN",N,N,1803,18083,18016,2017-2018
-86.0416531,39.88563558,1289,151467,International Business College-Indianapolis,7205 Shadeland Station,Indianapolis,IN,46256-3954,18,18097,Marion County,11,39.885628,-86.041648,26900,"Indianapolis-Carmel-Anderson, IN",1,294,"Indianapolis-Carmel-Muncie, IN",N,N,1805,18087,18031,2017-2018
-86.15903514,39.97609659,1290,151485,ITT Educational Services Inc-System Office,13000 Meridian Street,Carmel,IN,46032-1404,18,18057,Hamilton County,13,39.976089,-86.15903,26900,"Indianapolis-Carmel-Anderson, IN",1,294,"Indianapolis-Carmel-Muncie, IN",N,N,1805,18039,18029,2017-2018
-86.663052,36.14701184,1291,151494,ITT Technical Institute-Nashville,2845 Elm Hill Pike,Nashville,TN,37214-3717,47,47037,Davidson County,11,36.147005,-86.663047,34980,"Nashville-Davidson--Murfreesboro--Franklin, TN",1,400,"Nashville-Davidson--Murfreesboro, TN",N,N,4705,47060,47020,2017-2018
-85.10644593,41.17033586,1292,151500,ITT Technical Institute-Fort Wayne,2810 Dupont Commerce Court,Fort Wayne,IN,46825,18,18003,Allen County,11,41.170328,-85.106441,23060,"Fort Wayne, IN",1,258,"Fort Wayne-Huntington-Auburn, IN",N,N,1803,18084,18015,2017-2018
-86.22304316,39.92479358,1293,151519,ITT Technical Institute-Indianapolis,9511 Angola Ct,Indianapolis,IN,46268-1119,18,18097,Marion County,11,39.924786,-86.223038,26900,"Indianapolis-Carmel-Anderson, IN",1,294,"Indianapolis-Carmel-Muncie, IN",N,N,1805,18086,18029,2017-2018
-86.61816339,41.28771981,1294,151564,Knox Beauty College,320 E Culver Rd,Knox,IN,46534,18,18149,Starke County,32,41.287712,-86.618158,N,N,0,N,N,N,N,1802,18020,18008,2017-2018
-86.88701239,40.41982564,1295,151607,Tricoci University of Beauty Culture-Lafayette,833 Ferry Street,Lafayette,IN,47901,18,18157,Tippecanoe County,13,40.419818,-86.887007,29200,"Lafayette-West Lafayette, IN",1,320,"Lafayette-West Lafayette-Frankfort, IN",N,N,1804,18027,18007,2017-2018
-87.32613962,41.4737098,1296,151616,Brown Mackie College-Merrillville,"1000 E 80th Place, Suite 2055",Merrillville,IN,46410,18,18089,Lake County,21,41.473702,-87.326134,16980,"Chicago-Naperville-Elgin, IL-IN-WI",1,176,"Chicago-Naperville, IL-IN-WI",N,N,1801,18014,18002,2017-2018
-86.1006191,39.66647454,1297,151652,Empire Beauty School-Indianapolis,3810 E Southport Rd.,Indianapolis,IN,46237-3249,18,18097,Marion County,11,39.666467,-86.100614,26900,"Indianapolis-Carmel-Anderson, IN",1,294,"Indianapolis-Carmel-Muncie, IN",N,N,1807,18090,18032,2017-2018
-86.24628116,39.88451057,1298,151661,Lincoln College of Technology-Indianapolis,7225 Winton Drive - Building 128,Indianapolis,IN,46268,18,18097,Marion County,11,39.884503,-86.246276,26900,"Indianapolis-Carmel-Anderson, IN",1,294,"Indianapolis-Carmel-Muncie, IN",N,N,1805,18086,18029,2017-2018
-85.76264811,41.0105568,1299,151777,Manchester University,604 E. College Ave,North Manchester,IN,46962,18,18169,Wabash County,32,41.010549,-85.762643,47340,"Wabash, IN",2,N,N,N,N,1802,18018,18017,2017-2018
-86.20264814,39.81324056,1300,151786,Marian University,3200 Cold Spring Rd,Indianapolis,IN,46222-1997,18,18097,Marion County,11,39.813233,-86.202643,26900,"Indianapolis-Carmel-Anderson, IN",1,294,"Indianapolis-Carmel-Muncie, IN",N,N,1807,18099,18033,2017-2018
-85.66750804,40.51794472,1301,151801,Indiana Wesleyan University-Marion,4201 South Washington Street,Marion,IN,46953-4974,18,18053,Grant County,32,40.517937,-85.667503,31980,"Marion, IN",2,N,N,N,N,1805,18031,18017,2017-2018
-86.10395811,39.79815156,1302,151810,Martin University,2186 North Sherman Drive,Indianapolis,IN,46218-0567,18,18097,Marion County,11,39.798144,-86.103953,26900,"Indianapolis-Carmel-Anderson, IN",1,294,"Indianapolis-Carmel-Muncie, IN",N,N,1807,18098,18034,2017-2018
-85.97217024,41.65602091,1303,151865,Anabaptist Mennonite Biblical Seminary,3003 Benham Ave,Elkhart,IN,46517-1999,18,18039,Elkhart County,13,41.656013,-85.972165,21140,"Elkhart-Goshen, IN",1,515,"South Bend-Elkhart-Mishawaka, IN-MI",N,N,1802,18021,18012,2017-2018
-86.19990531,41.7082889,1304,151944,Brown Mackie College-South Bend,3454 Douglas Rd.,South Bend,IN,46635,18,18141,St. Joseph County,12,41.708281,-86.1999,43780,"South Bend-Mishawaka, IN-MI",1,515,"South Bend-Elkhart-Mishawaka, IN-MI",N,N,1802,18008,18011,2017-2018
-85.74470089,38.3120973,1305,151962,Mid-America College of Funeral Service,3111 Hamburg Pke,Jeffersonville,IN,47130,18,18019,Clark County,21,38.31209,-85.744696,31140,"Louisville/Jefferson County, KY-IN",1,350,"Louisville/Jefferson County--Elizabethtown--Madison, KY-IN",N,N,1809,18071,18046,2017-2018
-85.59024918,42.25933703,1306,152044,West Michigan College of Barbering and Beauty,3200 South Westnedge Ave,Kalamazoo,MI,49008,26,26077,Kalamazoo County,13,42.259329,-85.590244,28020,"Kalamazoo-Portage, MI",1,310,"Kalamazoo-Battle Creek-Portage, MI",N,N,2606,26060,26020,2017-2018
-86.23896432,41.7030659,1307,152080,University of Notre Dame,400 Main Building,Notre Dame,IN,46556,18,18141,St. Joseph County,21,41.703058,-86.238959,43780,"South Bend-Mishawaka, IN-MI",1,515,"South Bend-Elkhart-Mishawaka, IN-MI",N,N,1802,18008,18010,2017-2018
-87.62487675,41.87860185,1308,15208001,University of Notre Dame -,224 South Michigan Avenue,Chicago,IL,60604-2535,17,17031,Cook County,11,41.878594,-87.624871,16980,"Chicago-Naperville-Elgin, IL-IN-WI",1,176,"Chicago-Naperville, IL-IN-WI",N,N,1707,17005,17003,2017-2018
-87.35144536,38.34089823,1309,152099,Oakland City University,138 N Lucretia St,Oakland City,IN,47660-1099,18,18051,Gibson County,32,38.340891,-87.35144,N,N,0,N,N,N,N,1808,18064,18048,2017-2018
-84.84260574,39.83227763,1310,152150,PJ's College of Cosmetology-Richmond,50 Hayes Arboretum Road,Richmond,IN,47374,18,18177,Wayne County,32,39.83227,-84.842601,39980,"Richmond, IN",2,458,"Richmond-Connersville, IN",N,N,1806,18056,18027,2017-2018
-87.47403968,41.58433381,1311,152248,Purdue University-Calumet Campus,2200 169th St,Hammond,IN,46323-2094,18,18089,Lake County,21,41.584326,-87.474034,16980,"Chicago-Naperville-Elgin, IL-IN-WI",1,176,"Chicago-Naperville, IL-IN-WI",N,N,1801,18001,18001,2017-2018
-86.8937185,41.58253484,1312,152266,Purdue University-North Central Campus,1401 S US Hwy 421,Westville,IN,46391-9542,18,18091,LaPorte County,41,41.582527,-86.893713,33140,"Michigan City-La Porte, IN",1,176,"Chicago-Naperville, IL-IN-WI",N,N,1801,18009,18004,2017-2018
-85.04608291,41.12180986,1313,152275,Ravenscroft Beauty College,4530 Lahmeyer Road,Fort Wayne,IN,46835,18,18003,Allen County,11,41.121802,-85.046078,23060,"Fort Wayne, IN",1,258,"Fort Wayne-Huntington-Auburn, IN",N,N,1803,18084,18014,2017-2018
-87.6097494,37.98376315,1314,152309,Rogers Academy of Hair Design,2903 Mt. Vernon Avenue,Evansville,IN,47712,18,18163,Vanderburgh County,12,37.983756,-87.609744,21780,"Evansville, IN-KY",1,N,N,N,N,1808,18076,18049,2017-2018
-87.32675444,39.48360945,1315,152318,Rose-Hulman Institute of Technology,5500 Wabash Avenue,Terre Haute,IN,47803-3920,18,18167,Vigo County,13,39.483602,-87.326749,45460,"Terre Haute, IN",1,N,N,N,N,1808,18043,18038,2017-2018
-86.13271618,40.49130369,1316,152327,Rudae's School of Beauty Culture-Kokomo,208 W Jefferson St,Kokomo,IN,46901-4516,18,18067,Howard County,13,40.491296,-86.132711,29020,"Kokomo, IN",1,316,"Kokomo-Peru, IN",N,N,1804,18030,18021,2017-2018
-85.17725095,41.08721285,1317,152336,University of Saint Francis-Fort Wayne,2701 Spring St,Fort Wayne,IN,46808-3994,18,18003,Allen County,11,41.087205,-85.177246,23060,"Fort Wayne, IN",1,258,"Fort Wayne-Huntington-Auburn, IN",N,N,1803,18081,18016,2017-2018
-87.16028352,40.92135571,1318,152363,Saint Josephs College,1498 South College Avenue,Rensselaer,IN,47978-0870,18,18073,Jasper County,32,40.921348,-87.160278,16980,"Chicago-Naperville-Elgin, IL-IN-WI",1,176,"Chicago-Naperville, IL-IN-WI",N,N,1804,18016,18007,2017-2018
-87.46379648,39.50855344,1319,152381,Saint Mary-of-the-Woods College,1 St Mary of Woods Coll,Saint Mary of the Woods,IN,47876-1099,18,18167,Vigo County,41,39.508546,-87.463791,45460,"Terre Haute, IN",1,N,N,N,N,1808,18043,18038,2017-2018
-86.25695233,41.7072819,1320,152390,Saint Mary's College,133 Le Mans Hall,Notre Dame,IN,46556,18,18141,St. Joseph County,21,41.707274,-86.256947,43780,"South Bend-Mishawaka, IN-MI",1,515,"South Bend-Elkhart-Mishawaka, IN-MI",N,N,1802,18008,18010,2017-2018
-87.47689467,41.57184681,1321,152415,Brightwood College-Hammond,7833 Indianapolis Blvd,Hammond,IN,46324,18,18089,Lake County,21,41.571839,-87.476889,16980,"Chicago-Naperville-Elgin, IL-IN-WI",1,176,"Chicago-Naperville, IL-IN-WI",N,N,1801,18001,18001,2017-2018
-86.81039319,38.16555322,1322,152451,Saint Meinrad School of Theology,200 Hill Drive,St. Meinrad,IN,47577,18,18147,Spencer County,43,38.165546,-86.810388,N,N,0,N,N,N,N,1808,18074,18048,2017-2018
-86.88083539,40.42740864,1323,152497,Saint Elizabeth School of Nursing,1501 Hartford Street,Lafayette,IN,47904-9988,18,18157,Tippecanoe County,13,40.427401,-86.88083,29200,"Lafayette-West Lafayette, IN",1,320,"Lafayette-West Lafayette-Frankfort, IN",N,N,1804,18027,18007,2017-2018
-85.49703899,40.45625372,1324,152530,Taylor University,236 W Reade Ave,Upland,IN,46989-1001,18,18053,Grant County,32,40.456246,-85.497034,31980,"Marion, IN",2,N,N,N,N,1805,18032,18019,2017-2018
-85.00801395,41.63250995,1325,152567,Trine University,1 University Ave,Angola,IN,46703-1764,18,18151,Steuben County,32,41.632502,-85.008009,11420,"Angola, IN",2,258,"Fort Wayne-Huntington-Auburn, IN",N,N,1803,18051,18013,2017-2018
-87.04017754,41.46224681,1326,152600,Valparaiso University,US Highway 30 and Sturdy Road,Valparaiso,IN,46383,18,18127,Porter County,21,41.462239,-87.040172,16980,"Chicago-Naperville-Elgin, IL-IN-WI",1,176,"Chicago-Naperville, IL-IN-WI",N,N,1801,18004,18005,2017-2018
-87.53241543,38.67974629,1327,152628,Vincennes Beauty College,12 S Second St,Vincennes,IN,47591,18,18083,Knox County,33,38.679739,-87.53241,47180,"Vincennes, IN",2,N,N,N,N,1808,18045,18048,2017-2018
-87.51994443,38.68777329,1328,152637,Vincennes University,1002 N First St,Vincennes,IN,47591,18,18083,Knox County,33,38.687766,-87.519939,47180,"Vincennes, IN",2,N,N,N,N,1808,18045,18048,2017-2018
-86.90600537,40.03759557,1329,152673,Wabash College,301 West Wabash Avenue,Crawfordsville,IN,47933-0352,18,18107,Montgomery County,32,40.037588,-86.906,18820,"Crawfordsville, IN",2,294,"Indianapolis-Carmel-Muncie, IN",N,N,1804,18041,18023,2017-2018
-92.34015518,42.53009168,1330,152798,Allen College,1990 Heath St,Waterloo,IA,50703-1999,19,19013,Black Hawk County,13,42.530084,-92.340148,47940,"Waterloo-Cedar Falls, IA",1,N,N,N,N,1901,19062,19031,2017-2018
-96.42845231,42.52645041,1331,152992,Briar Cliff University,3303 Rebecca Street,Sioux City,IA,51104,19,19193,Woodbury County,13,42.526443,-96.428444,43580,"Sioux City, IA-NE-SD",1,512,"Sioux City-Vermillion, IA-SD-NE",N,N,1904,19014,19007,2017-2018
-95.20853699,42.64226251,1332,153001,Buena Vista University,610 W 4th St,Storm Lake,IA,50588,19,19021,Buena Vista County,33,42.642255,-95.208529,44740,"Storm Lake, IA",2,N,N,N,N,1904,19011,19006,2017-2018
-90.6655717,42.49736478,1333,153074,Capri College-Dubuque,395 Main St,Dubuque,IA,52004-0873,19,19061,Dubuque County,13,42.497357,-90.665565,20220,"Dubuque, IA",1,N,N,N,N,1901,19100,19050,2017-2018
-91.71020794,41.96074163,1334,153083,Capri College-Cedar Rapids,2945 Williams Parkway S.W.,Cedar Rapids,IA,52404,19,19113,Linn County,12,41.960734,-91.710201,16300,"Cedar Rapids, IA",1,168,"Cedar Rapids-Iowa City, IA",N,N,1901,19069,19035,2017-2018
-92.92220622,41.40154646,1335,153108,Central College,812 University,Pella,IA,50219,19,19125,Marion County,32,41.401539,-92.922199,37800,"Pella, IA",2,423,"Oskaloosa-Pella, IA",N,N,1902,19079,19040,2017-2018
-90.69049371,42.50948278,1336,153126,Clarke University,1550 Clarke Dr,Dubuque,IA,52001-3198,19,19061,Dubuque County,13,42.509475,-90.690487,20220,"Dubuque, IA",1,N,N,N,N,1901,19100,19050,2017-2018
-91.65819893,41.98827064,1337,153144,Coe College,1220 First Ave NE,Cedar Rapids,IA,52402-5092,19,19113,Linn County,12,41.988263,-91.658192,16300,"Cedar Rapids, IA",1,168,"Cedar Rapids-Iowa City, IA",N,N,1901,19065,19033,2017-2018
-91.42374785,41.92456164,1338,153162,Cornell College,600 First St. SW,Mount Vernon,IA,52314-1098,19,19113,Linn County,31,41.924554,-91.423741,16300,"Cedar Rapids, IA",1,168,"Cedar Rapids-Iowa City, IA",N,N,1901,19095,19048,2017-2018
-92.91506128,42.01529056,1339,153171,Iowa School of Beauty-Marshalltown,112 Nicholas Dr,Marshalltown,IA,50158,19,19127,Marshall County,32,42.015283,-92.915054,32260,"Marshalltown, IA",2,N,N,N,N,1901,19071,19036,2017-2018
-93.61160444,41.70735547,1340,153214,Des Moines Area Community College,2006 Ankeny Blvd,Ankeny,IA,50023-3993,19,19153,Polk County,21,41.707348,-93.611597,19780,"Des Moines-West Des Moines, IA",1,218,"Des Moines-Ames-West Des Moines, IA",N,N,1903,19038,19019,2017-2018
-90.93458477,42.44172875,1341,153241,Divine Word College,102 Jacoby Dr SW,Epworth,IA,52045,19,19061,Dubuque County,42,42.441721,-90.934578,20220,"Dubuque, IA",1,N,N,N,N,1901,19057,19029,2017-2018
-96.16657031,43.08253451,1342,153250,Dordt College,498 4th Ave NE,Sioux Center,IA,51250-1697,19,19167,Sioux County,33,43.082527,-96.166562,N,N,0,N,N,N,N,1904,19004,19002,2017-2018
-93.65217044,41.60129745,1343,153269,Drake University,2507 University Avenue,Des Moines,IA,50311-4505,19,19153,Polk County,12,41.60129,-93.652163,19780,"Des Moines-West Des Moines, IA",1,218,"Des Moines-Ames-West Des Moines, IA",N,N,1903,19035,19018,2017-2018
-90.69343471,42.49726778,1344,153278,University of Dubuque,2000 University Ave,Dubuque,IA,52001,19,19061,Dubuque County,13,42.49726,-90.693428,20220,"Dubuque, IA",1,N,N,N,N,1901,19099,19050,2017-2018
-93.26586044,42.52753162,1345,153296,Ellsworth Community College,1100 College Ave,Iowa Falls,IA,50126,19,19083,Hardin County,32,42.527524,-93.265853,N,N,0,N,N,N,N,1904,19050,19025,2017-2018
-90.70601771,42.50831478,1346,153302,Emmaus Bible College,2570 Asbury Rd,Dubuque,IA,52001-3096,19,19061,Dubuque County,13,42.508307,-90.706011,20220,"Dubuque, IA",1,N,N,N,N,1901,19100,19050,2017-2018
-90.57780257,41.52047762,1347,153311,Eastern Iowa Community College District,306 W River Dr,Davenport,IA,52801-1221,19,19163,Scott County,12,41.52047,-90.577796,19340,"Davenport-Moline-Rock Island, IA-IL",1,209,"Davenport-Moline, IA-IL",N,N,1902,19090,19045,2017-2018
-93.62442945,41.73708947,1348,153320,Faith Baptist Bible College and Theological Seminary,1900 NW 4th St,Ankeny,IA,50023-2152,19,19153,Polk County,21,41.737082,-93.624422,19780,"Des Moines-West Des Moines, IA",1,218,"Des Moines-Ames-West Des Moines, IA",N,N,1903,19037,19019,2017-2018
-95.20141999,42.65445652,1349,153339,Faust Institute of Cosmetology-Storm Lake,1290 N. Lake Avenue,Storm Lake,IA,50588,19,19021,Buena Vista County,41,42.654449,-95.201412,44740,"Storm Lake, IA",2,N,N,N,N,1904,19011,19006,2017-2018
-93.92490041,40.61597327,1350,153366,Graceland University-Lamoni,1 University Place,Lamoni,IA,50140,19,19053,Decatur County,43,40.615966,-93.924893,N,N,0,N,N,N,N,1902,19027,19014,2017-2018
-94.43365839,39.09402399,1351,15336601,Graceland University - Independence,1401 W Truman Rd,Independence,MO,64050-3434,29,29095,Jackson County,21,39.094017,-94.433651,28140,"Kansas City, MO-KS",1,312,"Kansas City-Overland Park-Kansas City, MO-KS",N,N,2905,29021,29011,2017-2018
-93.60435943,41.62082046,1352,153375,Grand View University,1200 Grandview Ave,Des Moines,IA,50316,19,19153,Polk County,12,41.620813,-93.604352,19780,"Des Moines-West Des Moines, IA",1,218,"Des Moines-Ames-West Des Moines, IA",N,N,1903,19032,19016,2017-2018
-92.7221012,41.74795953,1353,153384,Grinnell College,1121 Park Street,Grinnell,IA,50112-1690,19,19157,Poweshiek County,33,41.747952,-92.722094,N,N,0,N,N,N,N,1901,19076,19038,2017-2018
-93.23895351,43.14962272,1354,153409,Kaplan University-Mason City Campus,2570 4th Street SW,Mason City,IA,50401,19,19033,Cerro Gordo County,33,43.149615,-93.238946,32380,"Mason City, IA",2,N,N,N,N,1904,19053,19027,2017-2018
-91.71351394,41.94960463,1355,153418,Kaplan University-Cedar Rapids Campus,3165 Edgewood Parkway SW,Cedar Rapids,IA,52404,19,19113,Linn County,12,41.949597,-91.713507,16300,"Cedar Rapids, IA",1,168,"Cedar Rapids-Iowa City, IA",N,N,1901,19069,19035,2017-2018
-90.56009457,41.57389563,1356,153427,Hamilton Technical College,1011 E 53rd St,Davenport,IA,52807,19,19163,Scott County,12,41.573888,-90.560088,19340,"Davenport-Moline-Rock Island, IA-IL",1,209,"Davenport-Moline, IA-IL",N,N,1902,19093,19047,2017-2018
-92.33064017,42.43001067,1357,153445,Hawkeye Community College,1501 E Orange Rd,Waterloo,IA,50701,19,19013,Black Hawk County,13,42.430003,-92.330633,47940,"Waterloo-Cedar Falls, IA",1,N,N,N,N,1901,19061,19031,2017-2018
-91.52495578,40.96265048,1358,153463,American Hair Academy,304 South Iris,Mt. Pleasant,IA,52641,19,19087,Henry County,33,40.962643,-91.524949,N,N,0,N,N,N,N,1902,19084,19042,2017-2018
-92.39474303,41.04511244,1359,153472,Indian Hills Community College,525 Grandview Ave,Ottumwa,IA,52501,19,19179,Wapello County,33,41.045105,-92.394736,36900,"Ottumwa, IA",2,N,N,N,N,1902,19081,19041,2017-2018
-94.20299769,42.49007456,1360,153524,Iowa Central Community College,One Triton Circle,Fort Dodge,IA,50501,19,19187,Webster County,33,42.490067,-94.20299,22700,"Fort Dodge, IA",2,N,N,N,N,1904,19009,19005,2017-2018
-94.81714998,43.39800365,1361,153533,Iowa Lakes Community College,19 S 7th St,Estherville,IA,51334-2295,19,19063,Emmet County,33,43.397996,-94.817142,N,N,0,N,N,N,N,1904,19007,19004,2017-2018
-93.63513643,41.59010145,1362,153542,UnityPoint Health-Des Moines School of Radiologic Technology,1200 Pleasant St,Des Moines,IA,50309-1453,19,19153,Polk County,12,41.590094,-93.635129,19780,"Des Moines-West Des Moines, IA",1,218,"Des Moines-Ames-West Des Moines, IA",N,N,1903,19034,19017,2017-2018
-93.61016643,41.59233145,1363,153588,American College of Hairstyling-Des Moines,603 E Sixth St,Des Moines,IA,50309,19,19153,Polk County,12,41.592324,-93.610159,19780,"Des Moines-West Des Moines, IA",1,218,"Des Moines-Ames-West Des Moines, IA",N,N,1903,19032,19016,2017-2018
-93.71163546,41.62469145,1364,153597,Iowa School of Beauty-Des Moines,3305 70th St,Des Moines,IA,50322-3203,19,19153,Polk County,21,41.624684,-93.711628,19780,"Des Moines-West Des Moines, IA",1,218,"Des Moines-Ames-West Des Moines, IA",N,N,1903,19040,19020,2017-2018
-93.64851149,42.02621952,1365,153603,Iowa State University,1750 Beardshear Hall,Ames,IA,50011-2103,19,19169,Story County,13,42.026212,-93.648504,11180,"Ames, IA",1,218,"Des Moines-Ames-West Des Moines, IA",N,N,1904,19046,19023,2017-2018
-91.55246579,40.97379848,1366,153621,Iowa Wesleyan University,601 N Main Street,Mount Pleasant,IA,52641,19,19087,Henry County,33,40.973791,-91.552459,N,N,0,N,N,N,N,1902,19084,19042,2017-2018
-95.79798299,41.27217526,1367,153630,Iowa Western Community College,2700 College Rd,Council Bluffs,IA,51503-1057,19,19155,Pottawattamie County,13,41.272168,-95.797975,36540,"Omaha-Council Bluffs, NE-IA",1,420,"Omaha-Council Bluffs-Fremont, NE-IA",N,N,1903,19016,19008,2017-2018
-91.53643186,41.66194259,1368,153658,University of Iowa,101 Jessup Hall,Iowa City,IA,52242-1316,19,19103,Johnson County,13,41.661935,-91.536425,26980,"Iowa City, IA",1,168,"Cedar Rapids-Iowa City, IA",N,N,1902,19085,19043,2017-2018
-91.65117892,41.91127562,1369,153737,Kirkwood Community College,6301 Kirkwood Blvd SW,Cedar Rapids,IA,52406-2068,19,19113,Linn County,12,41.911268,-91.651172,16300,"Cedar Rapids, IA",1,168,"Cedar Rapids-Iowa City, IA",N,N,1901,19069,19035,2017-2018
-92.4345032,42.51503367,1370,153746,La James International College-Cedar Falls,6322 University Ave,Cedar Falls,IA,50613,19,19013,Black Hawk County,13,42.515026,-92.434496,47940,"Waterloo-Cedar Falls, IA",1,N,N,N,N,1901,19059,19030,2017-2018
-93.73858447,41.66102246,1371,153764,La James International College-Johnston,8805 Chambery Blvd,Johnston,IA,50131,19,19153,Polk County,21,41.661015,-93.738577,19780,"Des Moines-West Des Moines, IA",1,218,"Des Moines-Ames-West Des Moines, IA",N,N,1903,19039,19020,2017-2018
-93.1998885,43.15379372,1372,153773,La James College of Hairstyling and Cosmetology,24 Second St NE,Mason City,IA,50401-3308,19,19033,Cerro Gordo County,33,43.153786,-93.199881,32380,"Mason City, IA",2,N,N,N,N,1904,19053,19027,2017-2018
-94.16386369,42.50050756,1373,153782,La James International College-Ft Dodge,2419 5th Avenue South,Fort Dodge,IA,50501,19,19187,Webster County,33,42.5005,-94.163856,22700,"Fort Dodge, IA",2,N,N,N,N,1904,19009,19005,2017-2018
-90.6790297,42.50391578,1374,153825,Loras College,1450 Alta Vista,Dubuque,IA,52004-0178,19,19061,Dubuque County,13,42.503908,-90.679023,20220,"Dubuque, IA",1,N,N,N,N,1901,19100,19050,2017-2018
-91.80281612,43.31231184,1375,153834,Luther College,700 College Drive,Decorah,IA,52101-1045,19,19191,Winneshiek County,33,43.312304,-91.802809,N,N,0,N,N,N,N,1901,19055,19028,2017-2018
-91.96731291,41.01778846,1376,153861,Maharishi University of Management,1000 N 4th St,Fairfield,IA,52557,19,19101,Jefferson County,33,41.017781,-91.967306,21840,"Fairfield, IA",2,N,N,N,N,1902,19082,19041,2017-2018
-92.90941828,42.00065756,1377,153922,Marshalltown Community College,3700 S Center St,Marshalltown,IA,50158,19,19127,Marshall County,41,42.00065,-92.909411,32260,"Marshalltown, IA",2,N,N,N,N,1901,19071,19036,2017-2018
-93.62624543,41.59456645,1378,153977,Mercy College of Health Sciences,928 Sixth Ave,Des Moines,IA,50309-1239,19,19153,Polk County,12,41.594559,-93.626238,19780,"Des Moines-West Des Moines, IA",1,218,"Des Moines-Ames-West Des Moines, IA",N,N,1903,19034,19017,2017-2018
-96.35947228,42.47389841,1379,154004,Morningside College,1501 Morningside Ave,Sioux City,IA,51106-1751,19,19193,Woodbury County,13,42.473891,-96.359464,43580,"Sioux City, IA-NE-SD",1,512,"Sioux City-Vermillion, IA-SD-NE",N,N,1904,19006,19003,2017-2018
-91.65099792,42.00193864,1380,154013,Mount Mercy University,1330 Elmhurst Dr NE,Cedar Rapids,IA,52402-4797,19,19113,Linn County,12,42.001931,-91.650991,16300,"Cedar Rapids, IA",1,168,"Cedar Rapids-Iowa City, IA",N,N,1901,19065,19033,2017-2018
-117.1419729,32.82730478,1381,154022,Ashford University,8620 Spectrum Center Boulevard,San Diego,CA,92123,6,6073,San Diego County,11,32.8273,-117.141961,41740,"San Diego-Carlsbad, CA",1,N,N,N,N,652,6077,6039,2017-2018
-93.13126748,43.15717673,1382,154059,North Iowa Area Community College,500 College Dr,Mason City,IA,50401,19,19033,Cerro Gordo County,33,43.157169,-93.13126,32380,"Mason City, IA",2,N,N,N,N,1904,19053,19027,2017-2018
-92.45971021,42.51493067,1383,154095,University of Northern Iowa,1227 W 27th St,Cedar Falls,IA,50614-0005,19,19013,Black Hawk County,13,42.514923,-92.459703,47940,"Waterloo-Cedar Falls, IA",1,N,N,N,N,1901,19059,19030,2017-2018
-96.05878027,42.99901451,1384,154101,Northwestern College,101 Seventh St SW,Orange City,IA,51041,19,19167,Sioux County,32,42.999007,-96.058772,N,N,0,N,N,N,N,1904,19004,19002,2017-2018
-91.86711212,43.17523781,1385,154110,Northeast Iowa Community College,1625 Hwy 150,Calmar,IA,52132-0400,19,19191,Winneshiek County,42,43.17523,-91.867105,N,N,0,N,N,N,N,1901,19055,19028,2017-2018
-95.88064724,43.18470855,1386,154129,Northwest Iowa Community College,603 W Park St,Sheldon,IA,51201,19,19167,Sioux County,41,43.184701,-95.880639,N,N,0,N,N,N,N,1904,19003,19002,2017-2018
-93.66169344,41.58333245,1387,154156,Des Moines University-Osteopathic Medical Center,3200 Grand Ave,Des Moines,IA,50312,19,19153,Polk County,12,41.583325,-93.661686,19780,"Des Moines-West Des Moines, IA",1,218,"Des Moines-Ames-West Des Moines, IA",N,N,1903,19041,19021,2017-2018
-92.41795504,41.02334743,1388,154165,Iowa School of Beauty-Ottumwa,609 W Second St,Ottumwa,IA,52501,19,19179,Wapello County,33,41.02334,-92.417948,36900,"Ottumwa, IA",2,N,N,N,N,1902,19081,19041,2017-2018
-90.57461357,41.52902863,1389,154174,Palmer College of Chiropractic,1000 Brady St,Davenport,IA,52803-5287,19,19163,Scott County,12,41.529021,-90.574607,19340,"Davenport-Moline-Rock Island, IA-IL",1,209,"Davenport-Moline, IA-IL",N,N,1902,19090,19045,2017-2018
-93.61361847,41.99767752,1390,154208,PCI Academy-Ames,309 Kitty Hawk Dr.,Ames,IA,50010,19,19169,Story County,13,41.99767,-93.613611,11180,"Ames, IA",1,218,"Des Moines-Ames-West Des Moines, IA",N,N,1904,19045,19023,2017-2018
-90.57986057,41.54065763,1391,154235,Saint Ambrose University,518 W Locust St,Davenport,IA,52803-2898,19,19163,Scott County,12,41.54065,-90.579854,19340,"Davenport-Moline-Rock Island, IA-IL",1,209,"Davenport-Moline, IA-IL",N,N,1902,19093,19047,2017-2018
-96.4047323,42.52008841,1392,154262,St Luke's College,2720 Stone Park Blvd,Sioux City,IA,51104-0263,19,19193,Woodbury County,13,42.520081,-96.404724,43580,"Sioux City, IA-NE-SD",1,512,"Sioux City-Vermillion, IA-SD-NE",N,N,1904,19013,19007,2017-2018
-90.56820657,41.57286863,1393,154332,La James International College-Davenport,5205 North Brady Street,Davenport,IA,52806,19,19163,Scott County,12,41.572861,-90.5682,19340,"Davenport-Moline-Rock Island, IA-IL",1,209,"Davenport-Moline, IA-IL",N,N,1902,19093,19047,2017-2018
-91.53204485,41.66344059,1394,154341,La James International College-Iowa City,227 E Market-Brewery Sq,Iowa City,IA,52245,19,19103,Johnson County,13,41.663433,-91.532038,26980,"Iowa City, IA",1,168,"Cedar Rapids-Iowa City, IA",N,N,1902,19085,19043,2017-2018
-93.56347839,41.36551042,1395,154350,Simpson College,701 North C St,Indianola,IA,50125,19,19181,Warren County,31,41.365503,-93.563471,19780,"Des Moines-West Des Moines, IA",1,218,"Des Moines-Ames-West Des Moines, IA",N,N,1903,19026,19013,2017-2018
-91.17188766,40.81450347,1396,154378,Southeastern Community College,1500 West Agency Road,West Burlington,IA,52655-0180,19,19057,Des Moines County,33,40.814496,-91.171881,15460,"Burlington, IA-IL",2,N,N,N,N,1902,19087,19044,2017-2018
-94.38091358,41.07344432,1397,154396,Southwestern Community College,1501 West Townline Street,Creston,IA,50801,19,19175,Union County,33,41.073437,-94.380906,N,N,0,N,N,N,N,1903,19021,19011,2017-2018
-90.53883456,41.57521864,1398,154448,Capri College-Davenport,2540 E. 53rd Street,Davenport,IA,52807-3003,19,19163,Scott County,12,41.575211,-90.538828,19340,"Davenport-Moline-Rock Island, IA-IL",1,209,"Davenport-Moline, IA-IL",N,N,1902,19094,19047,2017-2018
-96.36585028,42.4418194,1399,154457,Iowa School of Beauty-Sioux City,3320 Line Drive,Sioux City,IA,51106,19,19193,Woodbury County,13,42.441812,-96.365842,43580,"Sioux City, IA-NE-SD",1,512,"Sioux City-Vermillion, IA-SD-NE",N,N,1904,19006,19003,2017-2018
-95.851125,41.26131326,1400,154466,E Q School of Hair Design,536 W Broadway,Council Bluffs,IA,51503,19,19155,Pottawattamie County,13,41.261306,-95.851117,36540,"Omaha-Council Bluffs, NE-IA",1,420,"Omaha-Council Bluffs-Fremont, NE-IA",N,N,1903,19016,19008,2017-2018
-91.79955006,42.83829076,1401,154493,Upper Iowa University,605 Washington St,Fayette,IA,52142-1857,19,19065,Fayette County,43,42.838283,-91.799543,N,N,0,N,N,N,N,1901,19055,19028,2017-2018
-93.64172163,43.26293071,1402,154518,Waldorf University,106 S Sixth St,Forest City,IA,50436-1713,19,19189,Winnebago County,33,43.262923,-93.641714,N,N,0,N,N,N,N,1904,19007,19004,2017-2018
-92.48339424,42.7277077,1403,154527,Wartburg College,100 Wartburg Blvd.,Waverly,IA,50677-0903,19,19017,Bremer County,32,42.7277,-92.483387,47940,"Waterloo-Cedar Falls, IA",1,N,N,N,N,1901,19063,19032,2017-2018
